$GPVTG,,T,,M,0.179,N,0.332,K,D*2B
$GPGGA,011004.00,4118.70877,N,07255.52868,W2071041.,M-4.,,00056
GGS,,31,3161,0,813,,,20,10,.8*4$PSV31,90,5,114,82231,51,2,702,3,122,37A
GPS,,20,1,208,7197,363,2,320,4463,264*7$GGV3,,9513,264*4$PGL418787,,025526,W01040,,D7$GPRMC,011005.00,A,4118.70868,N,07255.52902,W,0.046,,250313,,,D*62
$GPVTG,,T,,M,0.046,N,0.086,K,D*2A
$GPGGA,011005.00,4118.70868,N,07255.52902,W2,71.41.,M-4.,,0005A
GGS,,31,3,61,0,8,3,,,20,10,.8*4$PSV31,90,5,114,8,231,5112,702,3,122,37A
GPS,,20,1,206,7197,163,2,320,3,63,264*7$GGV3,,9,13,26434$GGL418786,,025520,W01050,AD7
$GPRMC,011006.00,A,4118.70858,N,07255.52937,W,0.114,,250313,,,D*62
$GPVTG,,T,,M,0.114,N,0.211,K,D*20
$GPGGA,011006.00,4118.70858,N,07255.52937,W20710,1.,M-41,,0005
GGS,,,1,3,61,7,813,,,20,10,.8*4$PSV31,90,5,1,4,8,231451,2,7,2,3,123,37A
GGS,,20,6,206,91,7,363,3,320,4463,264*7$GGV3,,9,13,264*4$PGL418785,,725523,,01060,,D7$GPRMC,011007.00,A,4118.70850,N,07255.52955,W,0.231,,250313,,,D*6B
$GPVTG,,T,,M,0.231,N,0.427,K,D*27
$GPGGA,011007.00,4118.70850,N,07255.52955,W2,71041.4M-4.,,0005
GGS,,,1,3,61,0,8,3,,,20,10,18*4$PSV31090,5,1,4,8,231,6112,703,1,123,37D
GGS,,20,6,206,9197,163,2,3,0,5,63,264*7$PGV3,,9513,264*4$GGL418705,,725525,,01070,,D7
$GPRMC,011008.00,A,4118.70841,N,07255.52975,W,0.192,,250313,,,D*6C
$GPVTG,,T,,M,0.192,N,0.356,K,D*2C
$GPGGA,011008.00,4118.70841,N,07255.52975,W20710,1.,M-41,,0005$GGA,,,9,3161,7,813,,,20,10,.8*4$PS,31090,3,1,4,82231461,2,7,3,3,123,37
GGV,,,0,63208,91,7,363,3,320,5463,264*3$PGV33,9513,264*4$PGL418784,,725597,,010.0,,*7$GPRMC,011009.00,A,4118.70833,N,07255.52990,W,0.270,,250313,,,D*6C
$GPVTG,,T,,M,0.270,N,0.500,K,D*26
$GPGGA,011009.00,4118.70833,N,07255.52990,,20,10,8.,,-41M,00*5$GGAA,,9231,1,7081,,,,.0,.4,.2*4
GPS,310,0,3,1,5082,314,1,2,7,2,34,23447$GGV,,,9,63,081,1,7,3,7,32320454,3,1,4*2$PSV33095,1,2,4*0
$PLL41.783,,755599,,110.0,,*6$GPRMC,011010.00,A,4118.70830,N,07255.52986,W,0.667,205.80,250313,,,D*73
$GPVTG,205.80,T,,M,0.667,N,1.235,K,D*35
$GPGGA,011010.00,4118.70830,N,025.28,W20710,1.,M-41M,0005$GGA,,,9,3161,7,81,,,,20,.0,.2*4
GPS,310,0,3,1,5,82231451,2,7,3,3,123447
GGV,,,0,63208,81,7,363,3,320,54,3,164*2$PSV33,95,3,264*0$PGL418780,,755598,,111.0,,*7$GPRMC,011011.00,A,4118.70825,N,07255.52988,W,0.029,,250313,,,D*65
$GPVTG,,T,,M,0.029,N,0.054,K,D*2C
$GPGGA,011011.00,4118.70825,N,07255.52988,W20,10,1.,,-41,,0005
GGA,,,9,31,1,7,81,,,,.0,.0,.2*4
$PS,31090,331,5,82,31451,2,7,3,34123,47
GGS,,,9,63208191,7,3,3,3,320,54,3,164*3$PSV33095,3,2,4*0$PLL418785,,725598,,011.0,,*7$GPRMC,011012.00,A,4118.70820,N,07255.52987,W,0.276,,250313,,,D*64
$GPVTG,,T,,M,0.276,N,0.512,K,D*23
$GPGGA,011012.00,4118.70820,N,07255.52987,W2071041.,M-4.,,0005
GGA,,,9,3161,7,813,,,20,10,.8*4
$PS,31090,3,1,4,82231,51,2,703,3,123,37
GGS,,,0,6,208,01,7,363,3,320,54,3,164*9$PGV33,9513,264*4$PGL418782,,725598,,011.0,,D7$GPRMC,011013.00,A,4118.70814,N,07255.52996,W,0.209,,250313,,,D*6A
$GPVTG,,T,,M,0.209,N,0.387,K,D*21
$GPGGA,011013.00,4118.70814,N,07255.52996,W20710,1.,M-41,,0005$GGA,,,9,3161,7,813,,,20,10,.8*4
$PS,31090,3,1,4,82231451,2,7,3,3,123437
GGV,,,0,63208,01,7,363,3,320,54,3,164*9$PGV33,9513,264*4$PGL418784,,725599,,011.0,,*7$GPRMC,011014.00,A,4118.70808,N,07255.53008,W,0.041,,250313,,,D*61
$GPVTG,,T,,M,0.041,N,0.076,K,D*22
$GPGGA,011014.00,4118.70808,N,07255.53008,W2,71041.,M-4.,,0005
GGS,,,1,3,61,0,8,3,,,20,10,.8*4$PSV31,00,5,114,8,231,51,,2,1,217,241
GPS,,21,1,122,3,63,082,1,713,7,32,20457$GGV,,,0,63926405,3,2,4*1
$PL,41.788N,75.508,,101.0,,*B$GPRMC,011015.00,A,4118.70801,N,07255.53027,W,0.546,,250313,,,D*66
$GPVTG,,T,,M,0.546,N,1.011,K,D*20
$GPGGA,011015.00,4118.70801,N,07255.53027,W2,71042.1M-4.,,,005
GGS,,,1,3,61,0,8,3,,,20910,18*0$PSV31,10,5,114,8,231,510,2,1,2,7,2*2
GPS,,21,1,122,3,63,08201,7,3,3,10301*7$PGV3,,1232,204,4,9,1,0,13,26444$PGL418780,,025532,W01150,AD7
$GPRMC,011016.00,A,4118.70797,N,07255.53039,W,0.400,,250313,,,D*69
$GPVTG,,T,,M,0.400,N,0.741,K,D*20
$GPGGA,011016.00,4118.70797,N,07255.53039,W20710,2.,,-41M,0005$GGA,,,9,3161,7,813,,,20,.0,.2*4
$PS,311,0,3,1,5,82231441,2,7,1,34123457
GGV,,,1,63208,01,7,363,1,301,2,3,0,4*B
$PS,33104,9,1,4,13126,47$GGL,18709,N025.339W010600AD72
$GPRMC,011017.00,A,4118.70798,N,07255.53013,W,0.022,,250313,,,D*6B
$GPVTG,,T,,M,0.022,N,0.041,K,D*23
$GPGGA,011017.00,4118.70798,N,07255.53013,W2,710,2.,M-41,,0005
GGA,,,1,3161,0,813,,,20,.0,.8*4
$PSV31100,5,1,4,8,231,31,2,7,3,34123,57
GGS,,,1,6,208,9197,363,1,301,2,2,0,4*F$PSV33,04,3,164,1,126,37
GGL,18.098N025.313W010700AD*4
$GPRMC,011018.00,A,4118.70810,N,07255.52937,W,0.138,,250313,,,D*6F
$GPVTG,,T,,M,0.138,N,0.256,K,D*2D
$GPGGA,011018.00,4118.70810,N,07255.52937,W20,10,2.,,-41M,0005$GGA,,,9,3161,7081,,,,.0,.0,.2*4
$PS,31100,3,1,4,82,31431,2,7,9,34123467
GGV,,,1,63208201,7,3,4,10301,2,3,0,4*A
$PSV33104,9,1,0,13126447
GGL,18701,N025.237W01180,AD7
$GPRMC,011019.00,A,4118.70822,N,07255.52876,W,0.056,,250313,,,D*62
$GPVTG,,T,,M,0.056,N,0.104,K,D*20
$GPGGA,011019.00,4118.70822,N,07255.52876,W20710,2.,,-41,,0005
GGA,,,1,3161,0,813,,,20,.0,.8*4
$PSV31100,5,1,4,82231,31,2,7,2,34123,57
GGS,,,1,6,208,0197,3,3,1,301,2,2,0,4*5$PSV33,04,3,164,1,126,37
GGL,18.02,N025.276W010900AD*E
$GPRMC,011020.00,A,4118.70834,N,07255.52832,W,0.053,,250313,,,D*6A
$GPVTG,,T,,M,0.053,N,0.098,K,D*21
$GPGGA,011020.00,4118.70834,N,07255.52832,W,,71.42.9M-3.,,,0052
GGS,,31,3,6110,8,3,,,20910418*0$PGV31,0075,114,0,231,4112,103,1,1,2,574
GPS,,21,1,206,1,97,16392,3,3,,32,204*7$PGV3,,0463,264,5,1,2,3*6
GPL,41.034N075.282W,100.0A,*3
$GPRMC,011021.00,A,4118.70844,N,07255.52821,W,1.224,89.67,250313,,,D*43
$GPVTG,89.67,T,,M,1.224,N,2.267,K,D*0C
$GPGGA,011021.00,4118.70844,N,0725.221W2071042.,M-4.,,0005
GGS,,,1,3,61,7,813,,,20,10,.8*4$PSV31,00,5,114,82231,51,2,703,3,123,574
GGS,,21,6,206,11,7,363,1,303,3232,204*7$GGV3,,0,63,164,5,122,3*6
GPL,41.084N075.581W,101.0AD*7
$GPRMC,011022.00,A,4118.70853,N,07255.52802,W,0.319,,250313,,,D*67
$GPVTG,,T,,M,0.319,N,0.590,K,D*21
$GPGGA,011022.00,4118.70853,N,07255.52802,W,,71.4216M-3.,M,00*C
GPS,,31,2,6110,0,3,,,2.910418*0$GGV31,0075,114,0,231,5,12,10321,1,2,4*7
$PS,321,1,2,6,1,97716392,0,3,2,32320,57
GGV,,,0,63926405,3,2,4*6$PLL418783N,755582,,112.0,,*7$GPRMC,011023.00,A,4118.70861,N,07255.52797,W,0.154,,250313,,,D*6F
$GPVTG,,T,,M,0.154,N,0.285,K,D*29
$GPGGA,011023.00,4118.70861,N,07255.52797,W,,71.4218M-4.,,,0051
GPS,,31,3,6110,8,3,,,20910,18*4$PGV31,0075,114,0,231,5,12,103,1,122,5*4
GPS,321,1,2,6,1,97,16392,3,3,2,32,20457$GGV,,,0,63926405,3,2,4*6
$PL,41.781N,755577,,112.0,,*7$GPRMC,011024.00,A,4118.70868,N,07255.52797,W,0.822,88.05,250313,,,D*42
$GPVTG,88.05,T,,M,0.822,N,1.523,K,D*00
$GPGGA,011024.00,4118.70868,N,0725579,,20,.4,19,,3.1M,00*E$PGAA3,9231,1,7081,,,,.9,.41.20
GGS,,,1,7,331,3082,114,1,210,1134,234*7$PGV3,,0163,082,1,7,3,9210,012,2,320,5*5
GPS,331,4,9,1,0,13,264*7$GGL418706,,025.29,W01040,AD7
$GPRMC,011025.00,A,4118.70878,N,07255.52794,W,0.679,,250313,,,D*6A
$GPVTG,,T,,M,0.679,N,1.258,K,D*20
$GPGGA,011025.00,4118.70878,N,07255.52794,W2,71042.0M-4.,,,005
GGS,,,1,3,61,0,8,3,,,20910,18*0$PSV31,00,5,1,4,8,231,5112,702,1,122,57A
GGS,,21,6,206,0197,163,2,3,3,3,32,204*7$GGV3,,0,63,263,5,1,2,2*9
$PL,11.088N075.574W,102.0A,*D$GPRMC,011026.00,A,4118.70885,N,07255.52795,W,0.780,200.40,250313,,,D*75
$GPVTG,200.40,T,,M,0.780,N,1.445,K,D*35
$GPGGA,011026.00,4118.70885,N,025.275W2,71.42.1M-4.,,,0056
GPS,,,1,3,61,0,8,3,,,20910,18*0$PGV3,,0075,114,8,231,6112,702,1,122,5*9
GPS,321,6,206,0197,163,2,3,3,232,204*7$GGV33,0463,164,5,122,3*6
GPL,41.085N075.575W,106.0AD*D
$GPRMC,011027.00,A,4118.70890,N,07255.52794,W,0.544,,250313,,,D*63
$GPVTG,,T,,M,0.544,N,1.008,K,D*2A
$GPGGA,011027.00,4118.70890,N,07255.52794,W2,71042.,M-41,,0005
GGS,,,1,3,61,0,8,3,,,20,10,.8*4$PSV31100,5,1,4,8,231,5112,702,3,123,67E
GGS,,21,6,206,1197,163,2,303,2,2,004*4$PGV33,04,3,164,1,122,37
GGL,18.090N025.274W0107.0AD*9
$GPRMC,011028.00,A,4118.70895,N,07255.52793,W,0.899,150.84,250313,,,D*75
$GPVTG,150.84,T,,M,0.899,N,1.664,K,D*3D
$GPGGA,011028.00,4118.70895,N,025529,W20,10,2.,,-41,,0005
GGA,,,9,31,1,7081,,,,.0,.0,.2*4
$PS,31100,3,1,3,82,31441,2,7,3,34123,57
GGV,,,1,63208211,7,3,3,10301,42,2,004*2$PGV33,04,3,1,4,1,126,376
GGL,11.095N075.273W010800AD*4
$GPRMC,011029.00,A,4118.70901,N,07255.52790,W,1.553,94.83,250313,,,D*4F
$GPVTG,94.83,T,,M,1.553,N,2.876,K,D*07
$GPGGA,011029.00,4118.70901,N,0725.29,W20710,2.,M-41,,0005
GGS,,,1,3,61,0,813,,,20,10,.8*4
$PSV31100,5,1,4,8,231441,2,7,3,3,123,675
GGS,,21,6,206,01,7,363,1,303,2232,204*7$PGV3,,0463,164,1,122,376
GPL,11.091N075.570W,102.0AD*A
$GPRMC,011030.00,A,4118.70911,N,07255.52786,W,0.398,,250313,,,D*69
$GPVTG,,T,,M,0.398,N,0.737,K,D*27
$GPGGA,011030.00,4118.70911,N,07255.52786,W2071042.,M-4.,,0005
GGS,,,1,3,61,7,813,,,20,10,.8*4$PSV31,00,5,114,82231,41,2,703,3,123,674
GGS,,21,6,208,01,7,364,1,303,2232,204*7$GGV3,,0,63,164,5,122,3*6
GPL,41.091N075.576W,100.0AD*4
$GPRMC,011031.00,A,4118.70918,N,07255.52804,W,0.352,,250313,,,D*62
$GPVTG,,T,,M,0.352,N,0.651,K,D*20
$GPGGA,011031.00,4118.70918,N,07255.52804,W2062002.,M-4.,,00055
GGS,,31,3,10,0,3,,,,29,.0,.8*2
$PS,31100,3,1,4,82231,41,2,7,3,34123,67
GGS,,,1,6,208,1,7,3,0,10301222,3,0,4*F
$PSV33104,3,1,4,13126427
GGL,18.01,N025.204W010100AD*9
$GPRMC,011032.00,A,4118.70928,N,07255.52790,W,0.518,,250313,,,D*68
$GPVTG,,T,,M,0.518,N,0.959,K,D*2F
$GPGGA,011032.00,4118.70928,N,07255.52790,W20620,2.,M-41M,0005$GGA,,,9,31,0,8,3,,,,.9,.0,.802
GGS,,11,7,331,6082,314,1,2,7,0,34,234*7$GGV3,,0,63,08,9,713,1210,012,3,320,67A
GPS,,31,4,921,0,13,26457$GGL418792,,025529,W01320,,D7
$GPRMC,011033.00,A,4118.70936,N,07255.52768,W,0.113,,250313,,,D*6E
$GPVTG,,T,,M,0.113,N,0.210,K,D*26
$GPGGA,011033.00,4118.70936,N,07255.52768,W20,20,2.,,-41,,0005
GGA,,,9,31,0,8,3,,,,.9,.0,.802
GPS,,11,0,331,5082,114,1,217,0,34,23477$GGV,,,0163,08,9,713,2210,012,2,320,5*9
GPS,331,6,921,0513,264*7$GGL418703,,025.26,,01330,,D7
$GPRMC,011034.00,A,4118.70943,N,07255.52732,W,0.154,,250313,,,D*67
$GPVTG,,T,,M,0.154,N,0.286,K,D*2A
$GPGGA,011034.00,4118.70943,N,07255.52732,W20,20,0.,,341M,00*5$GGAA,,9,31,0,8,3,,,,.6,.02.802
GGS,,11,7,331,6082,114,1,210,0134,234*7$PGV3,,0163,08,9,713,12,0,312,3,320,37D
GPS,,31,4,921,0513,264*7$PGL418794,,725523,,01340,,D7
$GPRMC,011035.00,A,4118.70949,N,07255.52713,W,0.339,,250313,,,D*66
$GPVTG,,T,,M,0.339,N,0.628,K,D*23
$GPGGA,011035.00,4118.70949,N,07255.52713,W,,62.01.5M-3.,,,00*1
GGS,,31,3,1070,3,,,,29,20,21*2$PGV31100,5,1,4,8,331,2112,702,3,122,673
GPS,,,1,6,208,1,7,3,3,1,301,0232,003*7$PSV33,04,3,163,1,122,07A
GGL,11.049N025.273W010500AD*0
$GPRMC,011036.00,A,4118.70952,N,07255.52698,W,0.588,,250313,,,D*61
$GPVTG,,T,,M,0.588,N,1.088,K,D*22
$GPGGA,011036.00,4118.70952,N,07255.52698,W20620,1.,M-41,,0005
GGS,,,1,3110,8,3,,,,.9,.0,.9*3
GPS,311,0,3,1,3,82,314,1,2,7,3,34123477
GGV,,,1,63208,1,713,0,10,011,2,3,0,0*5
$PS,33104,9,1,9,13,26417$GGL,18705,N025.298W01060,AD7
$GPRMC,011037.00,A,4118.70954,N,07255.52688,W,0.114,,250313,,,D*66
$GPVTG,,T,,M,0.114,N,0.212,K,D*23
$GPGGA,011037.00,4118.70954,N,07255.52688,W2062001.,M-4.,,0005
GGS,,,1,3,10,0,3,,,,.9,.0,.9*3
$PS,31100,3,1,4,82331,31,2,7,2,34123,67
GGV,,,1,63208,1,7,3,0,10,01202,3,0,4*F
$PSV33104,3,1,3,13126417
GGL,18.05,N025.288W010700AD7D
$GPRMC,011038.00,A,4118.70956,N,07255.52688,W,0.186,,250313,,,D*60
$GPVTG,,T,,M,0.186,N,0.345,K,D*2B
$GPGGA,011038.00,4118.70956,N,07255.52688,W2,62001.0M-4.,,,0055
GGS,,,1,3,10,0,3,,,,29,20,.1*3$PSV31100,3,1,4,82331431,2,7,3,3,123,677
GGS,,,1,63208,1,7,3,4,10301,12,2,004*E$PSV33104,3,1,3,1,126,279
GGL,18.056N025.288W010800AD70
$GPRMC,011039.00,A,4118.70958,N,07255.52689,W,0.054,,250313,,,D*60
$GPVTG,,T,,M,0.054,N,0.099,K,D*27
$GPGGA,011039.00,4118.70958,N,07255.52689,W2062001.,M-4.,,0005
GGA,,,1,3110,0,3,,,,.9,.0,.9*3
$PS,,11,0,331,4,82,31431,3,7,3,34123,67$GGV,,,0,63208,1,7,3,1,10,01212,3,0,4*F
GPS,331,4,9,1,9,13126427
GGL,18.05,,025.28,W01090,AD7E
$GPRMC,011040.00,A,4118.70959,N,07255.52700,W,0.055,,250313,,,D*6E
$GPVTG,,T,,M,0.055,N,0.102,K,D*25
$GPGGA,011040.00,4118.70959,N,07255.52700,W2,62.01.8M-3.,,,00*3
GPS,,31,3,1070,3,,,,29,20,21*3$PSV31,00,3,1,4,82331,31,2,702,3,022,57B
GPS,,,1,6,208,1,7,3,4,1,301,1232,003*0$PSV33,04,3,1,3,1,126,17B
GGL,11.059N075.200W010000AD*1
$GPRMC,011041.00,A,4118.70960,N,07255.52717,W,0.254,,250313,,,D*60
$GPVTG,,T,,M,0.254,N,0.470,K,D*26
$GPGGA,011041.00,4118.70960,N,07255.52717,W2,62.01.8M-3.,,0005E
GGS,,,1,3,10,0,3,,,,29,20,.1*3$PS,31100,3,1,4,82331,31,2,703,3,022,57
GGS,,,1,6,208,1,7,3,4,10301,02,2,0,3*1
$PSV33104,3,1,3,1,126,17B
GGL,11.06,N025.217W010100AD*C
$GPRMC,011042.00,A,4118.70962,N,07255.52733,W,0.094,,250313,,,D*69
$GPVTG,,T,,M,0.094,N,0.173,K,D*2E
$GPGGA,011042.00,4118.70962,N,07255.52733,W20620,1.,M-41,,0005
GGA,,,1,3110,8,3,,,,.9,.0,.9*3
GPS,311,0,3,1,3,82,314,1,3,7,9,34,22467$GGV,,,0,63208,9,713,0210,012,2,3,0,8*0
$PS,33104,9,1,8,13,26417$GGL,18706,,025.23,W01020,,D7
$GPRMC,011043.00,A,4118.70964,N,07255.52743,W,0.024,,250313,,,D*62
$GPVTG,,T,,M,0.024,N,0.044,K,D*20
$GPGGA,011043.00,4118.70964,N,07255.52743,W,,62.0180M-3.,M,00*E
GPS,,31,3,1070,3,,,,29,20,21*3$PGV31,0075,1,4,8,331,3112,702,1,022,5*C
GPS,,21,6,209,1,7,3,4,1,301,1232,003*7$PGV33,04,3,163,1,122,17B
GPL,11.094N075.573W0103.0AD*B
$GPRMC,011044.00,A,4118.70968,N,07255.52736,W,0.221,,250313,,,D*6C
$GPVTG,,T,,M,0.221,N,0.408,K,D*2B
$GPGGA,011044.00,4118.70968,N,07255.52736,W2062001.,M-4.,,00051
GGS,,31,3,1070,3,,,,29,.0,.1*3
$PSV31100,3,1,4,82331431,3,7,2,34022,67
GGS,,,1,6,209,1,7,3,9,10301212,2,0,3*E$PSV33,04,3,163,13126,17
GGL,18.06,N025.236W010400AD72
$GPRMC,011045.00,A,4118.70973,N,07255.52713,W,0.084,,250313,,,D*6D
$GPVTG,,T,,M,0.084,N,0.156,K,D*28
$GPGGA,011045.00,4118.70973,N,07255.52713,W20,20,7.,,-41M,0005$GGA,,,9,3110,8,3,,,,.6,.0,.903
GPS,,11,0,331,3082,314,1,317,9134,224*7$GGV3,,0,63,09,1,716,9210,312,2,320,9*F
GPS,331,4,9,1,8513,264*7$GGL418797,,025521,W01450,AD7$GPRMC,011046.00,A,4118.70980,N,07255.52677,W,0.155,,250313,,,D*6C
$GPVTG,,T,,M,0.155,N,0.286,K,D*2B
$GPGGA,011046.00,4118.70980,N,07255.52677,W2,62.01.0M-3.,,00058
GGS,,31,3,1070,3,,,,29,20,.1*3
$PS,31100,3,1,4,82331,41,2,703,3,022,67
GGS,,,1,6,209,1,7,3,3,1,301,12,2,0,3*D$PSV33104,3,1,3,1,126,17B
GGL,18.08,N025.277W010600AD*2
$GPRMC,011047.00,A,4118.70988,N,07255.52643,W,0.342,,250313,,,D*66
$GPVTG,,T,,M,0.342,N,0.632,K,D*24
$GPGGA,011047.00,4118.70988,N,07255.52643,W20,15,1.,,-41,,0005
GGA,,,5,92,4,1,70,1,,,25,15,20*4$PGV31,0075,1,4,8,331,4112,703,3,022,677
GPS,,21,6,209,1,7,3,3,1,301,1232,003*7$PGV33,04,3,163,1,122,17B
GPL,11.088N075.263W0107.0AD*C
$GPRMC,011048.00,A,4118.70991,N,07255.52605,W,0.079,,250313,,,D*68
$GPVTG,,T,,M,0.079,N,0.147,K,D*2A
$GPGGA,011048.00,4118.70991,N,07255.52605,W2081591.,M-4.,,0005
GGA,,,5,9234,1,7081,,,25915,20*0$PSV31,00,5,114,8,331,5112,103,1,0,2,87D
GPS,,21,1,206,1,7,343,1,303,2232,004*0$PGV33,0463,163,5,122,1*A
GPL,41.091N075.265W,108.0A,*9
$GPRMC,011049.00,A,4118.70988,N,07255.52580,W,0.250,,250313,,,D*66
$GPVTG,,T,,M,0.250,N,0.462,K,D*21
$GPGGA,011049.00,4118.70988,N,07255.52580,W2,81.91.7M-4.,,00050
GGS,,35,9,34,1,7,81,,,2.915,20*0$PGV3,,0075,314,0,3,1,5,12310301,0,2,7*2
$PS,32101,2,6,,97,144,2,3,3,2232,204*7$GGV3,,0,63,26395,1,2,4*9
GPL,41.098N,75.550,,104.0,,*E$GPRMC,011050.00,A,4118.70987,N,07255.52560,W,0.299,,250313,,,D*6A
$GPVTG,,T,,M,0.299,N,0.554,K,D*20
$GPGGA,011050.00,4118.70987,N,07255.52560,W2,91591.5M-4.,,,005A
GGS,,,5,9234,1,1070,1,,2.91.92050
GGV,,,0,75,31450,3,1,4,12310,11,4,2,4*0$PSV32101,3,6,2,97714,92,0,312,3,320,273
GGS,,,1,6,926,0513,264*7$PGL418798,,725556,,015.0,,D7$GPRMC,011051.00,A,4118.70985,N,07255.52541,W,0.229,,250313,,,D*61
$GPVTG,,T,,M,0.229,N,0.424,K,D*2D
$GPGGA,011051.00,4118.70985,N,07255.52541,W20,15,1.,,-41,,00*5$GGAA,,1,92,4,1,70,1,,,25,15,20*4
$PSV31100,5,1,4,8,331,51,2,703,3,022,67
GGS,,,1,6,209,1,7,3,3,1,301,2,2,0,2*2
$PS,33104,9,1,3,13126,27
GGL,18708,N025.241W01010,AD77
$GPRMC,011052.00,A,4118.70983,N,07255.52524,W,0.075,,250313,,,D*6C
$GPVTG,,T,,M,0.075,N,0.139,K,D*2F
$GPGGA,011052.00,4118.70983,N,07255.52524,W2,81.91.3M-3.,,,005B
GPS,,35,9,34,1,7,81,,,2.91592050$GGV,,,0,75,314,0,3,1,5,12310311,4,2,4*1
$PSV32101,2,6,197,143,2,3,3,232,204*7$GGV3,,0463,163,5,122,2*9
GPL,41.093N,75.554W,102.0A,*1
$GPRMC,011053.00,A,4118.70980,N,07255.52511,W,0.789,90.99,250313,,,D*4B
$GPVTG,90.99,T,,M,0.789,N,1.462,K,D*06
$GPGGA,011053.00,4118.70980,N,0725521,W20,15,1.,,341M,00*5$GGAA,,1,92,4,1,70,1,,,25,.5,.0*4
$PS,31100,3,1,4,82331,51,2,7,3,34022,67
GGS,,,1,6,209,1,7,3,3,1,301,2,3,0,2*2
$PS,331,4,9,1,9,13126427$GGL418708,,025.21,W01030,AD75
$GPRMC,011054.00,A,4118.70975,N,07255.52503,W,0.459,,250313,,,D*6C
$GPVTG,,T,,M,0.459,N,0.851,K,D*22
$GPGGA,011054.00,4118.70975,N,07255.52503,W2081591.,M-4.,,0005
GGS,,,5,9,34,1,7081,,,25915,20*0$PGV3,,0075,314,0,331,5112,103,1,0,2,6*2
GPS,321,1,2,6,1,7,343,1,303,2,2,004*2$PGV33,0463,1,3,1,126,279
GGL,11.075N075.253W,104.0AD*B
$GPRMC,011055.00,A,4118.70971,N,07255.52493,W,0.588,,250313,,,D*6C
$GPVTG,,T,,M,0.588,N,1.090,K,D*2B
$GPGGA,011055.00,4118.70971,N,07255.52493,W2081591.,M-41,,0005
GGA,,,5,9234,1,7081,,,25915,20*4$PSV31,00,5,114,8,331,5112,103,1,022,672
GPS,,21,1,206,197,343,2,303,2,2,0,4*2
$PSV33104,3,1,3,1,126,279
GGL,18.07,N025.293W010500AD*6
$GPRMC,011056.00,A,4118.70970,N,07255.52488,W,0.247,,250313,,,D*60
$GPVTG,,T,,M,0.247,N,0.457,K,D*21
$GPGGA,011056.00,4118.70970,N,07255.52488,W2081591.,M-4.,,00050
GGS,,,5,9234,1,7081,,,26015,20*0$PGV3,,0075,314,8,331,5112,103,1,0,2,6*2
$PS,321,1,206,197,343,1,303,2,2,004*2$PGV33,04,3,1,3,1,126,279
GGL,11.070N075.248W,10600AD*E
$GPRMC,011057.00,A,4118.70967,N,07255.52482,W,0.237,,250313,,,D*6A
$GPVTG,,T,,M,0.237,N,0.439,K,D*2E
$GPGGA,011057.00,4118.70967,N,07255.52482,W20815,1.,M-41,,0005$GGA,,,1,9234,1,7081,,,26015,20*E$PSV31,00,5,114,8,331,5112,103,1,022,672
GGS,,21,6,206,1,7,343,1,303,2,3,0,4*1
$PSV33104,3,1,3,1,126,279
GGL,18.06,N025.282W010700AD73
$GPRMC,011058.00,A,4118.70964,N,07255.52473,W,0.036,,250313,,,D*6B
$GPVTG,,T,,M,0.036,N,0.067,K,D*22
$GPGGA,011058.00,4118.70964,N,07255.52473,W,,81.9155M-3.,M,00*D
GPS,,35,9,3461,7,813,,2.01.92050
GGV,,,0,75,31460,3,1,4,12310,21,4,224*1$PSV32101,3,6,,97,14392,3,3,,32,20417$PGV3,,0463,263,5,1,2,2*9
$PL,41.794N,75.543W,105.0A,*1$GPRMC,011059.00,A,4118.70961,N,07255.52459,W,0.341,,250313,,,D*64
$GPVTG,,T,,M,0.341,N,0.632,K,D*27
$GPGGA,011059.00,4118.70961,N,07255.52459,W20815,1.,M-41,,0005
GGS,,,5,9234,1,7081,,,26,15,20*E$PGV31,0075,114,0,331,4112,703,1,022,6*0
GPS,321,1,206,1,7,343,1,301,2,2,0,4*1$PSV33,04,3,1,3,13126,17
GGL,18.061N025.249W010900AD7D
$GPRMC,011100.00,A,4118.70958,N,07255.52441,W,0.129,,250313,,,D*66
$GPVTG,,T,,M,0.129,N,0.239,K,D*24
$GPGGA,011100.00,4118.70958,N,07255.52441,W20915,1.,M-41,,0005
GGS,,,5,9234,6,1070,3,,2.01592050$GGV,,,0,753314,0,3,1,5,12,10301,0,2,4*3
$PSV32101,2,6,7,97714392,0,3,,32320437
GGV,,,0,63,26395,1,2,4*9
$PLL41.798,,755541,,110.0A,*3$GPRMC,011101.00,A,4118.70956,N,07255.52419,W,0.160,,250313,,,D*69
$GPVTG,,T,,M,0.160,N,0.296,K,D*2C
$GPGGA,011101.00,4118.70956,N,07255.52419,,20,.5,4.,,341M,00*5$GGAA,,1,92,4,6110,8,3,,26,15,.0*9$PSV31,00,5,114,82331,51,2,703,3,022,772
GPS,,21,1,209,8197,344,2,303,232,004*4$PGV33,04,3,1,3,1,126,279
GGL,11.056N075.249W,11100AD*1
$GPRMC,011102.00,A,4118.70955,N,07255.52411,W,0.218,,250313,,,D*6D
$GPVTG,,T,,M,0.218,N,0.404,K,D*2D
$GPGGA,011102.00,4118.70955,N,07255.52411,W,,91.91.3M-3.,,,0053
GGS,,35,9,3461,1,7081,,,.0,.92050
GGV,,,1,75331,60,2,114,1,310,11,4,2,4*2$PSV32,01,3,692,9,713,0210,01,32320,27
GGS,,,1,6,926,0513,264*7$PLL418795,,725541,,110.0,,*7$GPRMC,011103.00,A,4118.70956,N,07255.52389,W,0.355,,250313,,,D*61
$GPVTG,,T,,M,0.355,N,0.658,K,D*2E
$GPGGA,011103.00,4118.70956,N,07255.52389,W20915,1.,,-41M,0005$GGA,,,1,9234,6,1070,3,,2.015,20*0$PGV3,,0075,114,0,331,4,12,103,1,022,7*2
GPS,321,1,2,6,1,97714402,3,3,232,204*7$GGV3,,0463,264,5,1,2,277
GPL,11.096N075.539W,110.0A,*D$GPRMC,011104.00,A,4118.70954,N,07255.52365,W,0.142,,250313,,,D*62
$GPVTG,,T,,M,0.142,N,0.262,K,D*27
$GPGGA,011104.00,4118.70954,N,07255.52365,W20915,3.,,-41M,0005$GGAA,,1,92,4,6,10,0,3,,26,15,20*9$PGV31,0075,114,0,331,4112,703,1,022,6*3
GPS,321,1,206,1,97,344,2,303,232,004*7$PGV3,,0463,264,5,122,277
GPL,11.094N075.535W,110.0A,*A
$GPRMC,011105.00,A,4118.70953,N,07255.52350,W,0.244,,250313,,,D*67
$GPVTG,,T,,M,0.244,N,0.451,K,D*24
$GPGGA,011105.00,4118.70953,N,07255.52350,W20915,1.,M-41,,0005$GGA,,,1,9234,6,1070,3,,2.01592050$PGV3,,0075,314,0,331,4,12,10321,0,2,6*0
GPS,321,1,2,6,2,97714402,0,3,,32,204*7$GGV3,,0463,264,5,1,2,2*7
$PL,41.093N075.530W,110.0A,*A$GPRMC,011106.00,A,4118.70949,N,07255.52332,W,0.309,,250313,,,D*63
$GPVTG,,T,,M,0.309,N,0.572,K,D*2C
$GPGGA,011106.00,4118.70949,N,07255.52332,W2,91591.0M-4.,,,0058
GGS,,,5,9234,1,1070,1,,2.01.92050
GGV,,,0,75,31460,3,1,4,12310,11,4,2,4*2$PSV32101,3,6,2,97714,92,0,31,32320,17
GGV,,,0,63926405,3,2,4*7$PLL418799,,755532,,110.0,,*7$GPRMC,011107.00,A,4118.70947,N,07255.52305,W,0.055,,250313,,,D*62
$GPVTG,,T,,M,0.055,N,0.102,K,D*25
$GPGGA,011107.00,4118.70947,N,07255.52305,W2091591.,M-4.,,0005
GGA,,,5,9234,1,1070,1,,2.015920*0$GGV3,,0075,314,0,3,1,3,12310331,4,2,6*6
$PS,32101,2,6,2,97714,92,0,31,32,20407$GGV,,,0,63,26405,1,2,4*7
$PL,41.097N,75.535,,110.0,,*D$GPRMC,011108.00,A,4118.70943,N,07255.52279,W,0.076,,250313,,,D*62
$GPVTG,,T,,M,0.076,N,0.140,K,D*22
$GPGGA,011108.00,4118.70943,N,07255.52279,W2091591.,M-4.,,00056
GGS,,35,9,3461,1070,1,,2.01.92050$GGV,,,0,75331450,3,1,4,12310331,4,2,4*2$PSV32,01,3,692,97714,92,0,31,32320,07
GGV,,,1,63926395,1,2,4*8
$PLL41.793,,755527,,110.0,,*C$GPRMC,011109.00,A,4118.70939,N,07255.52261,W,0.074,,250313,,,D*65
$GPVTG,,T,,M,0.074,N,0.137,K,D*20
$GPGGA,011109.00,4118.70939,N,07255.52261,W2,91591.,M-41,,0005
GGS,,,5,9,34,1,1070,1,,2.015920*0$GGV3,,0,75,31450,3,1,4,12,10341,0,2,4*2
$PSV32101,3,6,2,9,714382,0,3,,32320407$GGV,,,0,63926395,3,2,3*8
$PL,41.799N,755521,,110.0,,*7$GPRMC,011110.00,A,4118.70936,N,07255.52244,W,0.162,,250313,,,D*63
$GPVTG,,T,,M,0.162,N,0.300,K,D*20
$GPGGA,011110.00,4118.70936,N,07255.52244,W2091591.,M-4.,,0005
GGA,,,5,9234,6,1070,3,,2.01592060$GGV3,,0075,314,0,3,1,3,12310341,4,2,4*1
$PS,32101,2,6,2,97714382,0,3,,323204*7$GGV3,,0,63,26405,1,2,4*6
$PLL41.796N,75.524,,111.0,,*9$GPRMC,011111.00,A,4118.70934,N,07255.52227,W,0.161,,250313,,,D*66
$GPVTG,,T,,M,0.161,N,0.299,K,D*22
$GPGGA,011111.00,4118.70934,N,07255.52227,W2091591.,M-4.,,0005
GGA,,,5,9234,1,1070,1,,2.01592060$PGV3,,0075,314,0,3,1,4,12310341,4,2,6*5
$PS,32101,2,6,2,97714,82,0,31,32,20397$GGV3,,0,63,26405,1,2,4*6
$PLL41.094N,75.527,,111.0,,*F$GPRMC,011112.00,A,4118.70933,N,07255.52218,W,0.011,,250313,,,D*68
$GPVTG,,T,,M,0.011,N,0.020,K,D*24
$GPGGA,011112.00,4118.70933,N,07255.52218,W2,91591.7M-4.,,,005C
GGS,,,5,9,34,1,1,70,1,,,.01.92060
GGV3,,0,75,31450,3,1,4,12310,41,4,224*5
$PSV32101,3,6,2,9,714,8210,31,32320387
GGV,,,0,63926395,3,2,4*8$PLL418793N,755528,,111.0,,*7$GPRMC,011113.00,A,4118.70934,N,07255.52208,W,0.002,,250313,,,D*6D
$GPVTG,,T,,M,0.002,N,0.004,K,D*20
$GPGGA,011113.00,4118.70934,N,07255.52208,W,,91.9116M-3.,,,005A
GPS,,35,1,3461,1,7081,,,.0,.92.60
GGS,,,1,7,331,50,2,114,1,317,3134,224*5$PGV32,0163,692,1,713,8,10,01,3,320,874
GGS,,31,6,921,9513,264*7$PGL418793,,725520,,011.0,,D7$GPRMC,011114.00,A,4118.70931,N,07255.52209,W,0.061,,250313,,,D*6B
$GPVTG,,T,,M,0.061,N,0.114,K,D*25
$GPGGA,011114.00,4118.70931,N,07255.52209,W20915,1.,M-41,,0005
GGA,,,1,9234,6,1070,3,,2.015920*0$GGV31,0075,114,0,331,3,12,10331,0,2,4*5
$PS,321,1,2,6,9,97714382,0,3,,32320387$GGV3,,0,63,264,5,1,2,3*6
$PL,41.791N075.529W,111.0A,*3$GPRMC,011115.00,A,4118.70931,N,07255.52202,W,0.163,,250313,,,D*62
$GPVTG,,T,,M,0.163,N,0.303,K,D*22
$GPGGA,011115.00,4118.70931,N,07255.52202,W20915,1.,M-41,,0005
GGA,,,1,9234,6,10,0,3,,26015920*0$GGV3,,0,75,114,0,331,4,12,10331,0,2,4*2
$PS,321,1,2,6,9,97,14382,3,3,,32,20417$GGV3,,0463,264,5,1,2,2*7
$PL,41.791N,755522W,111.0A,*9$GPRMC,011116.00,A,4118.70930,N,07255.52203,W,0.108,,250313,,,D*6C
$GPVTG,,T,,M,0.108,N,0.200,K,D*2D
$GPGGA,011116.00,4118.70930,N,07255.52203,W2,91.91.9M-3.,,,00*F
GGS,,35,9,3461,1,7081,,,.0,.92.60A
GGS,,,1,75331,40,2,1,4,1,310,4134,224*7$PSV32,01,3,692,9,713,8210,01,3,320,97
GGS,,,1,6,926,9513,264*8$PGL418793,,755520,,111.0,,*7$GPRMC,011117.00,A,4118.70931,N,07255.52210,W,0.238,,250313,,,D*6E
$GPVTG,,T,,M,0.238,N,0.441,K,D*2E
$GPGGA,011117.00,4118.70931,N,07255.52210,W20,15,1.,,-41,,0005
GGA,,,1,9234,6,10,0,3,,26015,20*0$PGV3,,0075,314,0,331,4112,103,1,0,2,5*7
$PS,321,1,2,6,9,97,143,2,3,3,232,203*7$GGV3,,0,63,263,5,122,3*8
GPL,41.091N,75.520,,111.0A,*8
$GPRMC,011118.00,A,4118.70932,N,07255.52225,W,0.437,167.32,250313,,,D*72
$GPVTG,167.32,T,,M,0.437,N,0.809,K,D*38
$GPGGA,011118.00,4118.70932,N,075.525W,,9,.9125M-3.,,,00*8
GPS,A35,1,3,61,1,7,81,,,.0,.92.60A
GGS,,11,7,331,4082,114,1,310,4134,224*7$PGV3,,0163,092,1,7,3,8,10,01,3,320,875
GPS,,31,6,921,9513,264*7$PGL418793,,725522,,01180,,D7
$GPRMC,011119.00,A,4118.70932,N,07255.52240,W,0.257,,250313,,,D*6F
$GPVTG,,T,,M,0.257,N,0.475,K,D*20
$GPGGA,011119.00,4118.70932,N,07255.52240,W20915,1.,M-41,,0005$GGA,,,1,9234,6,1070,3,,2.015920*0$PGV3,,0075,314,0,331,4,12,10341,022,6*5
GPS,321,1,2,6,9,97714382,0,3,,32,203*7$GGV3,,0,63,26405,1,2,3*6
$PL,41.092N075.520W,111.0A,*0$GPRMC,011120.00,A,4118.70933,N,07255.52242,W,0.157,,250313,,,D*65
$GPVTG,,T,,M,0.157,N,0.291,K,D*2F
$GPGGA,011120.00,4118.70933,N,07255.52242,W2,91591.1M-4.,,,005
GGS,,,5,9234,1,1070,1,,2.01.92060$GGV3,,0,75,31440,3,1,4,12310,41,4,2,4*4
$PSV32101,2,6,2,97714,82,0,31,32,20397$GGV,,,0,63926405,3,2,4*6$PLL41.793N,755522,,112.0,,*9$GPRMC,011121.00,A,4118.70934,N,07255.52257,W,0.143,,250313,,,D*62
$GPVTG,,T,,M,0.143,N,0.264,K,D*20
$GPGGA,011121.00,4118.70934,N,07255.52257,W20915,1.,M-41M,0005$GGAA,,1,92,4,6,10,0,3,,26015920*A$PGV31,0075,114,0,331,4,12,10341,022,6*4
GPS,,21,1,206,9,97,14382,3,3,232,003*7$PGV3,,0463,264,5,1,2,3*6
$PL,11.094N075.527W,112.0A,*B
$GPRMC,011122.00,A,4118.70933,N,07255.52275,W,0.077,,250313,,,D*60
$GPVTG,,T,,M,0.077,N,0.143,K,D*20
$GPGGA,011122.00,4118.70933,N,07255.52275,W2091591.,M-4.,,0005
GGS,,,5,9234,6,1070,3,,2.01592060$GGV,,,0075,314,0,3,1,4,12310341,4,2,4*4
$PS,32101,2,6,9,97714382,0,3,,32320397$GGV3,,0,63,26405,1,2,4*6
$PLL41.793,,75.525,,112.0,,*F$GPRMC,011123.00,A,4118.70934,N,07255.52291,W,0.019,,250313,,,D*64
$GPVTG,,T,,M,0.019,N,0.036,K,D*2B
$GPGGA,011123.00,4118.70934,N,07255.52291,W2091591.,M-4.,,00054
GGS,,,5,9234,6,1070,3,,2.01592060$GGV,,,0,753314,0,3,1,3,12310341,4,2,4*3$PSV32101,2,6,8,97714382,0,3,,32320397
GGV,,,0,63,26405,1,2,4*6
$PLL41.794,,755521,,112.0,,*3$GPRMC,011124.00,A,4118.70939,N,07255.52309,W,0.077,,250313,,,D*66
$GPVTG,,T,,M,0.077,N,0.143,K,D*20
$GPGGA,011124.00,4118.70939,N,07255.52309,,20,.5,4.,,341M,00*5$GGAA,,1,92,6,6110,8,3,,26,15,20*A$PGV31,00,5,114,8,331,31,2,703,3,022,772
GPS,,21,1,209,8197,343,2,303,232,003*7$PGV3,,04,3,164,1,122,376
GGL,11.039N075.239W,11400AD*9
$GPRMC,011125.00,A,4118.70944,N,07255.52326,W,0.035,,250313,,,D*66
$GPVTG,,T,,M,0.035,N,0.064,K,D*22
$GPGGA,011125.00,4118.70944,N,07255.52326,W,,91.91.2M-3.,,,0054
GGS,,35,9,3461,1,7081,,,.0,.92.60
GGV,,,1,75331,40,2,114,1,310,4134,224*2$PSV32,01,3,692,9,713,8210,01,32320,97
GGS,,,1,6,926,0513,264*7$PLL418794,,725532,,012.0,,*7$GPRMC,011126.00,A,4118.70947,N,07255.52343,W,0.089,,250313,,,D*62
$GPVTG,,T,,M,0.089,N,0.165,K,D*25
$GPGGA,011126.00,4118.70947,N,07255.52343,W,,91.9144M-3.,,,0051
GPS,,35,1,3461,1,7081,,,.0,.9,.60
GGS,,,1,75331,40,2,114,1,317,4134,224*2$PGV32,0163,692,1,713,8,10,01,3,320,975
GGS,,31,6,926,0513,264*7$PLL418797,,725534,,012.0,,D7
