$GPGGA,022109.00,4118.70916,N,07255.53606,W,1,04,4.90,47.2,M,-34.1,M,,*53
$GPGSA,A,3,07,13,23,03,,,,,,,,,6.55,4.90,4.34*0D
$GPGSV,3,1,10,03,63,168,39,06,66,112,41,07,19,302,23,13,56,285,43*7E
$GPGSV,3,2,10,16,,,35,19,,,40,23,58,230,44,31,,,38*40
$GPGSV,3,3,10,46,36,215,36,51,31,226,42*7A
$GPGLL,4118.70916,N,07255.53606,W,022109.00,A,A*75
$GPRMC,022110.00,A,4118.70943,N,07255.53587,W,0.926,,150213,,,A*67
$GPVTG,,T,,M,0.926,N,1.715,K,A*2C
$GPGGA,022110.00,4118.70943,N,07255.53587,W,1,04,4.90,51.5,M,-34.1,M,,*51
$GPGSA,A,3,07,13,23,03,,,,,,,,,6.55,4.90,4.34*0D
$GPGSV,3,1,12,03,63,168,38,06,66,112,40,07,19,302,23,13,56,285,43*7C
$GPGSV,3,2,12,16,,,34,19,,,41,21,,,20,23,58,230,43*4D
$GPGSV,3,3,12,30,37,059,,31,,,37,46,36,215,39,51,31,226,40*48
$GPGLL,4118.70943,N,07255.53587,W,022110.00,A,A*77
$GPRMC,022111.00,A,4118.70961,N,07255.53581,W,0.173,,150213,,,A*68
$GPVTG,,T,,M,0.173,N,0.320,K,A*27
$GPGGA,022111.00,4118.70961,N,07255.53581,W,1,04,4.89,58.3,M,-34.1,M,,*51
$GPGSA,A,3,07,13,23,03,,,,,,,,,6.55,4.89,4.35*04
$GPGSV,3,1,11,03,63,168,39,06,66,112,40,07,19,302,25,13,56,285,43*78
$GPGSV,3,2,11,16,,,33,19,,,41,23,58,230,42,30,37,059,*72
$GPGSV,3,3,11,31,,,37,46,36,215,39,51,31,226,40*70
$GPGLL,4118.70961,N,07255.53581,W,022111.00,A,A*70
$GPRMC,022112.00,A,4118.70967,N,07255.53567,W,1.187,80.18,150213,,,A*40
$GPVTG,80.18,T,,M,1.187,N,2.199,K,A*00
$GPGGA,022112.00,4118.70967,N,07255.53567,W,1,04,4.89,62.5,M,-34.1,M,,*53
$GPGSA,A,3,07,13,23,03,,,,,,,,,6.54,4.89,4.35*05
$GPGSV,3,1,11,03,63,168,40,06,66,112,40,07,19,302,26,13,56,285,43*75
$GPGSV,3,2,11,16,,,33,19,,,40,23,58,230,43,30,37,059,20*70
$GPGSV,3,3,11,31,,,37,46,36,215,38,51,31,226,40*71
$GPGLL,4118.70967,N,07255.53567,W,022112.00,A,A*7D
$GPRMC,022113.00,A,4118.70970,N,07255.53566,W,1.196,160.32,150213,,,A*71
$GPVTG,160.32,T,,M,1.196,N,2.215,K,A*30
$GPGGA,022113.00,4118.70970,N,07255.53566,W,1,04,4.89,66.3,M,-34.1,M,,*57
$GPGSA,A,3,07,13,23,03,,,,,,,,,6.54,4.89,4.35*05
$GPGSV,3,1,11,03,63,168,40,06,66,112,40,07,19,302,27,13,56,285,44*73
$GPGSV,3,2,11,16,,,33,19,,,40,23,58,230,44,30,37,059,20*77
$GPGSV,3,3,11,31,,,39,46,36,215,38,51,31,226,40*7F
$GPGLL,4118.70970,N,07255.53566,W,022113.00,A,A*7B
$GPRMC,022114.00,A,4118.70946,N,07255.53585,W,0.649,,150213,,,A*62
$GPVTG,,T,,M,0.649,N,1.202,K,A*29
$GPGGA,022114.00,4118.70946,N,07255.53585,W,1,04,4.89,67.9,M,-34.1,M,,*53
$GPGSA,A,3,07,13,23,03,,,,,,,,,6.54,4.89,4.35*05
$GPGSV,3,1,11,03,63,168,39,06,66,112,40,07,19,302,27,13,56,285,44*7D
$GPGSV,3,2,11,16,,,34,19,,,40,23,58,230,43,30,37,059,21*76
$GPGSV,3,3,11,31,,,36,46,36,215,38,51,31,226,40*70
$GPGLL,4118.70946,N,07255.53585,W,022114.00,A,A*74
$GPRMC,022115.00,A,4118.70933,N,07255.53594,W,0.138,,150213,,,A*60
$GPVTG,,T,,M,0.138,N,0.255,K,A*2B
$GPGGA,022115.00,4118.70933,N,07255.53594,W,1,04,4.89,70.0,M,-34.1,M,,*5F
$GPGSA,A,3,07,13,23,03,,,,,,,,,6.54,4.89,4.35*05
$GPGSV,3,1,11,03,63,168,40,06,66,112,40,07,19,302,28,13,56,285,44*7C
$GPGSV,3,2,11,16,,,34,19,,,40,23,58,230,43,30,37,059,20*77
$GPGSV,3,3,11,31,,,36,46,39,216,38,51,31,226,41*7D
$GPGLL,4118.70933,N,07255.53594,W,022115.00,A,A*77
$GPRMC,022116.00,A,4118.70919,N,07255.53616,W,1.362,,150213,,,A*6E
$GPVTG,,T,,M,1.362,N,2.523,K,A*23
$GPGGA,022116.00,4118.70919,N,07255.53616,W,1,04,4.88,69.9,M,-34.1,M,,*5D
$GPGSA,A,3,07,13,23,03,,,,,,,,,6.54,4.88,4.35*04
$GPGSV,3,1,11,03,63,168,33,06,66,112,42,07,19,302,17,13,56,285,26*72
$GPGSV,3,2,11,16,,,28,19,,,40,23,58,230,41,30,37,059,19*72
$GPGSV,3,3,11,31,,,41,46,39,216,39,51,31,226,42*7F
$GPGLL,4118.70919,N,07255.53616,W,022116.00,A,A*75
$GPRMC,022117.00,A,4118.71005,N,07255.53589,W,5.960,42.04,150213,,,A*4F
$GPVTG,42.04,T,,M,5.960,N,11.039,K,A*3F
$GPGGA,022117.00,4118.71005,N,07255.53589,W,1,04,4.88,61.5,M,-34.1,M,,*58
$GPGSA,A,2,07,13,23,03,,,,,,,,,4.98,4.88,1.00*04
$GPGSV,3,1,11,03,63,168,34,06,66,112,44,07,19,302,25,13,56,285,35*70
$GPGSV,3,2,11,16,,,26,19,,,40,23,58,230,41,30,37,059,18*7D
$GPGSV,3,3,11,31,,,42,46,39,216,40,51,31,226,44*74
$GPGLL,4118.71005,N,07255.53589,W,022117.00,A,A*74
$GPRMC,022118.00,A,4118.70987,N,07255.53534,W,0.214,,150213,,,A*65
$GPVTG,,T,,M,0.214,N,0.396,K,A*28
$GPGGA,022118.00,4118.70987,N,07255.53534,W,1,04,4.88,51.3,M,-34.1,M,,*56
$GPGSA,A,2,07,13,23,03,,,,,,,,,4.98,4.88,1.00*04
$GPGSV,3,1,12,03,63,168,34,06,66,112,44,07,19,302,23,13,56,285,35*75
$GPGSV,3,2,12,16,,,24,19,,,40,23,58,230,41,30,37,059,15*71
$GPGSV,3,3,12,31,,,42,33,15,112,36,46,39,216,41,51,31,226,44*45
$GPGLL,4118.70987,N,07255.53534,W,022118.00,A,A*7F
$GPRMC,022119.00,A,4118.70490,N,07255.53356,W,1.170,,150213,,,A*6D
$GPVTG,,T,,M,1.170,N,2.166,K,A*27
$GPGGA,022119.00,4118.70490,N,07255.53356,W,1,04,4.88,53.2,M,-34.1,M,,*5D
$GPGSA,A,3,07,13,23,03,,,,,,,,,6.54,4.88,4.36*07
$GPGSV,3,1,12,03,63,168,42,06,66,112,36,07,19,302,30,13,56,285,47*76
$GPGSV,3,2,12,16,,,34,19,,,40,23,58,230,42,30,37,059,15*73
$GPGSV,3,3,12,31,,,38,33,15,112,32,46,39,216,42,51,31,226,42*49
$GPGLL,4118.70490,N,07255.53356,W,022119.00,A,A*77
$GPRMC,022120.00,A,4118.70624,N,07255.53354,W,1.577,39.94,150213,,,A*42
$GPVTG,39.94,T,,M,1.577,N,2.921,K,A*06
$GPGGA,022120.00,4118.70624,N,07255.53354,W,1,04,4.88,55.8,M,-34.1,M,,*54
$GPGSA,A,3,07,13,23,03,,,,,,,,,6.54,4.88,4.36*07
$GPGSV,3,1,12,03,63,168,38,06,66,112,38,07,19,302,23,13,56,285,43*73
$GPGSV,3,2,12,16,,,31,19,,,40,23,58,230,38,30,37,059,18*76
$GPGSV,3,3,12,31,,,36,33,15,112,32,46,39,216,36,51,31,226,33*42
$GPGLL,4118.70624,N,07255.53354,W,022120.00,A,A*72
$GPRMC,022121.00,A,4118.70567,N,07255.53412,W,2.710,,150213,,,A*6B
$GPVTG,,T,,M,2.710,N,5.019,K,A*2A
$GPGGA,022121.00,4118.70567,N,07255.53412,W,1,04,4.87,56.5,M,-34.1,M,,*55
$GPGSA,A,3,07,13,23,03,,,,,,,,,6.54,4.87,4.36*08
$GPGSV,4,1,13,03,63,168,43,06,66,112,32,07,19,302,24,13,56,285,27*76
$GPGSV,4,2,13,16,,,30,19,,,27,23,58,230,23,30,37,059,18*7A
$GPGSV,4,3,13,31,,,38,32,,,26,33,15,112,33,46,39,216,36*7E
$GPGSV,4,4,13,51,31,226,41*4E
$GPGLL,4118.70567,N,07255.53412,W,022121.00,A,A*72
$GPRMC,022122.00,A,4118.70552,N,07255.53478,W,0.508,,150213,,,A*6B
$GPVTG,,T,,M,0.508,N,0.941,K,A*22
$GPGGA,022122.00,4118.70552,N,07255.53478,W,1,04,4.87,57.7,M,-34.1,M,,*5F
$GPGSA,A,3,07,13,23,03,,,,,,,,,6.54,4.87,4.36*08
$GPGSV,4,1,13,03,63,168,44,06,66,112,37,07,19,302,22,13,56,285,25*70
$GPGSV,4,2,13,16,,,29,19,,,27,23,58,230,25,30,37,059,18*74
$GPGSV,4,3,13,31,,,36,32,,,24,33,15,112,33,46,39,216,35*71
$GPGSV,4,4,13,51,31,226,37*4F
$GPGLL,4118.70552,N,07255.53478,W,022122.00,A,A*7B
$GPRMC,022123.00,A,4118.70636,N,07255.53453,W,4.000,25.74,150213,,,A*41
$GPVTG,25.74,T,,M,4.000,N,7.408,K,A*06
$GPGGA,022123.00,4118.70636,N,07255.53453,W,1,04,4.87,59.3,M,-34.1,M,,*5C
$GPGSA,A,3,07,13,23,03,,,,,,,,,6.54,4.87,4.37*09
$GPGSV,4,1,13,03,63,168,43,06,66,112,37,07,19,302,22,13,56,285,22*70
$GPGSV,4,2,13,16,,,28,19,,,26,23,58,230,31,30,37,059,15*7C
$GPGSV,4,3,13,31,,,36,32,,,23,33,15,112,32,46,39,216,35*77
$GPGSV,4,4,13,51,31,226,37*4F
$GPGLL,4118.70636,N,07255.53453,W,022123.00,A,A*72
$GPRMC,022124.00,A,4118.70683,N,07255.53464,W,2.760,,150213,,,A*61
$GPVTG,,T,,M,2.760,N,5.111,K,A*24
$GPGGA,022124.00,4118.70683,N,07255.53464,W,1,04,4.87,60.4,M,-34.1,M,,*5C
$GPGSA,A,3,07,13,23,03,,,,,,,,,6.54,4.87,4.37*09
$GPGSV,4,1,13,03,63,168,39,06,66,112,41,07,19,302,24,13,56,285,29*71
$GPGSV,4,2,13,16,,,32,19,,,41,23,58,230,25,30,37,059,15*73
$GPGSV,4,3,13,31,,,33,32,,,22,33,15,112,29,46,39,216,28*75
$GPGSV,4,4,13,51,31,226,27*4E
$GPGLL,4118.70683,N,07255.53464,W,022124.00,A,A*7F
$GPRMC,022125.00,A,4118.70758,N,07255.53792,W,7.253,286.43,150213,,,A*78
$GPVTG,286.43,T,,M,7.253,N,13.432,K,A*02
$GPGGA,022125.00,4118.70758,N,07255.53792,W,1,04,4.87,65.2,M,-34.1,M,,*53
$GPGSA,A,3,07,13,23,03,,,,,,,,,6.54,4.87,4.37*09
$GPGSV,4,1,13,03,63,168,33,06,66,112,37,07,19,302,31,13,56,285,38*7E
$GPGSV,4,2,13,16,,,28,19,,,27,23,58,230,33,30,37,059,15*7F
$GPGSV,4,3,13,31,,,27,32,,,19,33,15,112,28,46,39,216,*73
$GPGSV,4,4,13,51,31,226,35*4D
$GPGLL,4118.70758,N,07255.53792,W,022125.00,A,A*73
$GPRMC,022126.00,A,4118.70610,N,07255.53911,W,9.598,267.84,150213,,,A*79
$GPVTG,267.84,T,,M,9.598,N,17.776,K,A*0F
$GPGGA,022126.00,4118.70610,N,07255.53911,W,1,04,4.86,51.3,M,-34.1,M,,*5F
$GPGSA,A,2,07,13,23,03,,,,,,,,,4.96,4.86,1.00*04
$GPGSV,4,1,13,03,63,168,32,06,66,112,36,07,19,302,25,13,56,285,41*75
$GPGSV,4,2,13,16,,,36,19,,,27,23,58,230,38,30,37,059,17*79
$GPGSV,4,3,13,31,,,24,32,,,15,33,15,112,26,46,39,216,*72
$GPGSV,4,4,13,51,31,226,36*4E
$GPGLL,4118.70610,N,07255.53911,W,022126.00,A,A*78
$GPRMC,022127.00,A,4118.70828,N,07255.54193,W,5.448,268.51,150213,,,A*7F
$GPVTG,268.51,T,,M,5.448,N,10.089,K,A*08
$GPGGA,022127.00,4118.70828,N,07255.54193,W,1,04,4.86,53.7,M,-34.1,M,,*58
$GPGSA,A,3,07,13,23,03,,,,,,,,,6.54,4.86,4.37*08
$GPGSV,3,1,12,03,63,168,31,06,66,112,33,07,19,302,28,13,56,285,41*78
$GPGSV,3,2,12,16,,,36,19,,,26,23,58,230,39,30,37,059,18*70
$GPGSV,3,3,12,31,,,23,32,,,14,46,39,216,,51,31,226,33*70
$GPGLL,4118.70828,N,07255.54193,W,022127.00,A,A*79
$GPRMC,022128.00,A,4118.70744,N,07255.53759,W,3.631,,150213,,,A*6E
$GPVTG,,T,,M,3.631,N,6.725,K,A*22
$GPGGA,022128.00,4118.70744,N,07255.53759,W,1,05,2.92,54.9,M,-34.1,M,,*5E
$GPGSA,A,3,07,06,13,23,03,,,,,,,,5.14,2.92,4.23*0F
$GPGSV,3,1,11,03,63,168,30,06,66,111,38,07,19,302,37,13,56,285,40*7D
$GPGSV,3,2,11,16,,,36,19,,,25,23,58,230,39,30,37,059,20*7B
$GPGSV,3,3,11,31,,,20,46,39,216,,51,31,226,30*77
$GPGLL,4118.70744,N,07255.53759,W,022128.00,A,A*74
$GPRMC,022129.00,A,4118.70922,N,07255.53828,W,4.081,328.07,150213,,,A*72
$GPVTG,328.07,T,,M,4.081,N,7.558,K,A*31
$GPGGA,022129.00,4118.70922,N,07255.53828,W,1,05,2.92,51.6,M,-34.1,M,,*52
$GPGSA,A,3,07,06,13,23,03,,,,,,,,5.14,2.92,4.23*0F
$GPGSV,3,1,11,03,63,168,28,06,66,111,34,07,19,302,35,13,56,285,31*7C
$GPGSV,3,2,11,16,,,36,19,,,26,23,58,230,34,30,37,059,22*77
$GPGSV,3,3,11,31,,,19,46,39,216,,51,31,226,27*7B
$GPGLL,4118.70922,N,07255.53828,W,022129.00,A,A*72
$GPRMC,022130.00,A,4118.71010,N,07255.53820,W,2.191,,150213,,,A*6D
$GPVTG,,T,,M,2.191,N,4.058,K,A*21
$GPGGA,022130.00,4118.71010,N,07255.53820,W,1,05,2.92,53.3,M,-34.1,M,,*5C
$GPGSA,A,3,07,06,13,23,03,,,,,,,,5.14,2.92,4.24*08
$GPGSV,3,1,11,03,63,168,33,06,66,111,30,07,19,302,26,13,56,285,28*78
$GPGSV,3,2,11,16,,,37,19,,,31,23,58,230,33,30,37,059,22*77
$GPGSV,3,3,11,31,,,17,46,39,216,,51,31,226,27*75
$GPGLL,4118.71010,N,07255.53820,W,022130.00,A,A*7B
$GPRMC,022131.00,A,4118.71177,N,07255.53701,W,15.148,15.83,150213,,,A*73
$GPVTG,15.83,T,,M,15.148,N,28.055,K,A*01
$GPGGA,022131.00,4118.71177,N,07255.53701,W,1,05,2.92,50.9,M,-34.1,M,,*58
$GPGSA,A,3,07,06,13,23,03,,,,,,,,5.14,2.92,4.24*08
$GPGSV,3,1,11,03,63,168,36,06,66,111,28,07,20,302,24,13,56,285,29*7D
$GPGSV,3,2,11,16,,,40,19,,,26,23,58,230,28,30,37,059,20*79
$GPGSV,3,3,11,31,,,15,46,39,216,,51,31,226,28*78
$GPGLL,4118.71177,N,07255.53701,W,022131.00,A,A*76
$GPRMC,022132.00,A,4118.71482,N,07255.53535,W,12.189,22.25,150213,,,A*78
$GPVTG,22.25,T,,M,12.189,N,22.575,K,A*0E
$GPGGA,022132.00,4118.71482,N,07255.53535,W,1,05,2.92,50.8,M,-34.1,M,,*50
$GPGSA,A,3,07,06,13,23,03,,,,,,,,5.15,2.92,4.24*09
$GPGSV,3,1,11,03,63,168,36,06,66,111,25,07,20,302,25,13,56,285,36*7F
$GPGSV,3,2,11,16,,,40,19,,,27,23,58,230,28,30,37,059,18*73
$GPGSV,3,3,11,31,,,14,46,39,216,27,51,31,226,27*73
$GPGLL,4118.71482,N,07255.53535,W,022132.00,A,A*7F
$GPRMC,022133.00,A,4118.71651,N,07255.53544,W,5.478,21.04,150213,,,A*4E
$GPVTG,21.04,T,,M,5.478,N,10.145,K,A*35
$GPGGA,022133.00,4118.71651,N,07255.53544,W,1,05,2.92,52.3,M,-34.1,M,,*52
$GPGSA,A,3,07,06,13,23,03,,,,,,,,5.15,2.92,4.24*09
$GPGSV,3,1,11,03,63,168,33,06,66,111,23,07,20,302,27,13,56,285,36*7E
$GPGSV,3,2,11,16,,,38,19,,,28,23,58,230,32,30,37,059,16*76
$GPGSV,3,3,11,31,,,13,46,39,216,27,51,31,226,27*74
$GPGLL,4118.71651,N,07255.53544,W,022133.00,A,A*74
$GPRMC,022134.00,A,4118.71757,N,07255.53456,W,4.107,20.02,150213,,,A*47
$GPVTG,20.02,T,,M,4.107,N,7.606,K,A*08
$GPGGA,022134.00,4118.71757,N,07255.53456,W,1,05,2.92,51.3,M,-34.1,M,,*53
$GPGSA,A,3,07,06,13,23,03,,,,,,,,5.15,2.92,4.24*09
$GPGSV,3,1,11,03,63,168,36,06,66,111,20,07,20,302,31,13,56,285,34*7D
$GPGSV,3,2,11,16,,,34,19,,,32,23,58,230,35,30,37,059,16*76
$GPGSV,3,3,11,31,,,11,46,39,216,29,51,31,226,32*7C
$GPGLL,4118.71757,N,07255.53456,W,022134.00,A,A*76
$GPRMC,022135.00,A,4118.71831,N,07255.53367,W,3.336,,150213,,,A*65
$GPVTG,,T,,M,3.336,N,6.178,K,A*2E
$GPGGA,022135.00,4118.71831,N,07255.53367,W,1,05,2.92,50.3,M,-34.1,M,,*59
$GPGSA,A,3,07,06,13,23,03,,,,,,,,5.15,2.92,4.24*09
$GPGSV,3,1,11,03,63,168,37,06,66,111,18,07,20,302,31,13,56,285,36*75
$GPGSV,3,2,11,16,,,34,19,,,33,23,58,230,31,30,37,059,15*70
$GPGSV,3,3,11,31,,,10,46,39,216,28,51,31,226,27*78
$GPGLL,4118.71831,N,07255.53367,W,022135.00,A,A*7D
$GPRMC,022136.00,A,4118.71937,N,07255.53317,W,4.033,,150213,,,A*67
$GPVTG,,T,,M,4.033,N,7.470,K,A*23
$GPGGA,022136.00,4118.71937,N,07255.53317,W,1,05,2.92,50.4,M,-34.1,M,,*5D
$GPGSA,A,3,07,06,13,23,03,,,,,,,,5.15,2.92,4.25*08
$GPGSV,3,1,11,03,63,168,33,06,66,111,19,07,20,302,24,13,56,285,33*71
$GPGSV,3,2,11,16,,,34,19,,,32,23,58,230,26,30,37,059,14*76
$GPGSV,3,3,11,31,,,08,46,39,216,26,51,31,226,27*7F
$GPGLL,4118.71937,N,07255.53317,W,022136.00,A,A*7E
$GPRMC,022137.00,A,4118.71975,N,07255.53266,W,3.685,16.37,150213,,,A*46
$GPVTG,16.37,T,,M,3.685,N,6.824,K,A*0E
$GPGGA,022137.00,4118.71975,N,07255.53266,W,1,05,2.92,48.6,M,-34.1,M,,*56
$GPGSA,A,3,07,06,13,23,03,,,,,,,,5.15,2.92,4.25*08
$GPGSV,3,1,11,03,63,168,37,06,66,111,21,07,20,302,25,13,56,284,38*75
$GPGSV,3,2,11,16,,,26,19,,,27,23,58,230,34,30,37,059,13*75
$GPGSV,3,3,11,31,,,08,46,39,216,,51,31,226,28*74
$GPGLL,4118.71975,N,07255.53266,W,022137.00,A,A*7E
$GPRMC,022138.00,A,4118.72058,N,07255.53233,W,3.712,11.75,150213,,,A*42
$GPVTG,11.75,T,,M,3.712,N,6.875,K,A*04
$GPGGA,022138.00,4118.72058,N,07255.53233,W,1,05,2.92,47.8,M,-34.1,M,,*5D
$GPGSA,A,3,07,06,13,23,03,,,,,,,,5.15,2.92,4.25*08
$GPGSV,3,1,11,03,63,168,35,06,66,111,29,07,20,302,25,13,56,284,34*73
$GPGSV,3,2,11,16,,,26,19,,,27,23,58,230,30,30,37,059,13*71
$GPGSV,3,3,11,31,,,07,46,39,216,,51,31,226,27*74
$GPGLL,4118.72058,N,07255.53233,W,022138.00,A,A*74
$GPRMC,022139.00,A,4118.72157,N,07255.53190,W,3.629,12.88,150213,,,A*4F
$GPVTG,12.88,T,,M,3.629,N,6.721,K,A*02
$GPGGA,022139.00,4118.72157,N,07255.53190,W,1,05,2.92,46.9,M,-34.1,M,,*58
$GPGSA,A,3,07,06,13,23,03,,,,,,,,5.16,2.92,4.25*0B
$GPGSV,3,1,11,03,63,168,35,06,66,111,30,07,20,302,25,13,56,284,33*7C
$GPGSV,3,2,11,16,,,24,19,,,25,23,58,230,29,30,37,059,13*79
$GPGSV,3,3,11,31,,,07,46,39,216,,51,31,226,27*74
$GPGLL,4118.72157,N,07255.53190,W,022139.00,A,A*71
$GPRMC,022140.00,A,4118.72258,N,07255.53142,W,3.558,13.33,150213,,,A*46
$GPVTG,13.33,T,,M,3.558,N,6.589,K,A*06
$GPGGA,022140.00,4118.72258,N,07255.53142,W,1,05,2.92,46.8,M,-34.1,M,,*54
$GPGSA,A,3,07,06,13,23,03,,,,,,,,5.16,2.92,4.25*0B
$GPGSV,3,1,11,03,63,168,33,06,66,111,37,07,20,302,23,13,56,284,33*7B
$GPGSV,3,2,11,16,,,24,19,,,23,23,58,230,33,30,37,059,12*75
$GPGSV,3,3,11,31,15,112,,46,39,216,,51,31,226,*40
$GPGLL,4118.72258,N,07255.53142,W,022140.00,A,A*7C
$GPRMC,022141.00,A,4118.72367,N,07255.53087,W,3.917,11.51,150213,,,A*43
$GPVTG,11.51,T,,M,3.917,N,7.254,K,A*01
$GPGGA,022141.00,4118.72367,N,07255.53087,W,1,05,2.92,46.2,M,-34.1,M,,*5A
$GPGSA,A,3,07,06,13,23,03,,,,,,,,5.16,2.92,4.26*08
$GPGSV,3,1,11,03,63,168,33,06,66,111,34,07,20,302,22,13,56,284,30*7A
$GPGSV,3,2,11,16,,,23,19,,,22,23,58,230,32,30,37,059,09*78
$GPGSV,3,3,11,31,15,112,,46,39,216,,51,31,226,*40
$GPGLL,4118.72367,N,07255.53087,W,022141.00,A,A*78
$GPRMC,022142.00,A,4118.72458,N,07255.53025,W,2.648,,150213,,,A*6D
$GPVTG,,T,,M,2.648,N,4.904,K,A*22
$GPGGA,022142.00,4118.72458,N,07255.53025,W,1,05,2.92,46.2,M,-34.1,M,,*5A
$GPGSA,A,3,07,06,13,23,03,,,,,,,,5.16,2.92,4.26*08
$GPGSV,3,1,11,03,63,168,34,06,66,111,36,07,20,302,22,13,56,284,33*7C
$GPGSV,3,2,11,16,,,29,19,,,25,23,58,230,26,30,37,059,08*71
$GPGSV,3,3,11,31,15,112,,46,39,216,,51,31,226,*40
$GPGLL,4118.72458,N,07255.53025,W,022142.00,A,A*78
$GPRMC,022143.00,A,4118.72628,N,07255.52887,W,2.946,11.41,150213,,,A*42
$GPVTG,11.41,T,,M,2.946,N,5.456,K,A*03
$GPGGA,022143.00,4118.72628,N,07255.52887,W,1,05,2.92,47.3,M,-34.1,M,,*5F
$GPGSA,A,3,07,06,13,23,03,,,,,,,,5.16,2.92,4.26*08
$GPGSV,3,1,11,03,63,168,34,06,66,111,37,07,20,302,23,13,56,284,33*7C
$GPGSV,3,2,11,16,,,23,19,,,25,23,58,230,26,30,37,059,08*7B
$GPGSV,3,3,11,31,15,112,,46,39,216,,51,31,226,*40
$GPGLL,4118.72628,N,07255.52887,W,022143.00,A,A*7D
$GPRMC,022144.00,A,4118.72962,N,07255.52530,W,3.588,7.44,150213,,,A*78
$GPVTG,7.44,T,,M,3.588,N,6.645,K,A*3D
$GPGGA,022144.00,4118.72962,N,07255.52530,W,1,05,2.92,47.9,M,-34.1,M,,*52
$GPGSA,A,3,07,06,13,23,03,,,,,,,,5.16,2.92,4.26*08
$GPGSV,3,1,11,03,63,168,37,06,66,111,38,07,20,302,29,13,56,284,29*71
$GPGSV,3,2,11,16,,,22,19,,,27,23,58,230,35,30,37,059,08*7A
$GPGSV,3,3,11,31,15,112,,46,39,216,,51,31,226,*40
$GPGLL,4118.72962,N,07255.52530,W,022144.00,A,A*7A
$GPRMC,022145.00,A,4118.73060,N,07255.52511,W,2.721,,150213,,,A*69
$GPVTG,,T,,M,2.721,N,5.039,K,A*2A
$GPGGA,022145.00,4118.73060,N,07255.52511,W,1,05,2.92,48.8,M,-34.1,M,,*54
$GPGSA,A,3,07,06,13,23,03,,,,,,,,5.16,2.92,4.26*08
$GPGSV,3,1,11,03,63,168,35,06,66,111,28,07,20,302,22,13,56,284,32*73
$GPGSV,3,2,11,16,,,20,19,,,26,23,58,230,32,30,37,059,07*71
$GPGSV,3,3,11,31,15,112,,46,39,216,,51,31,226,*40
$GPGLL,4118.73060,N,07255.52511,W,022145.00,A,A*72
$GPRMC,022146.00,A,4118.73142,N,07255.52471,W,2.455,,150213,,,A*6C
$GPVTG,,T,,M,2.455,N,4.548,K,A*28
$GPGGA,022146.00,4118.73142,N,07255.52471,W,1,05,2.92,47.6,M,-34.1,M,,*50
$GPGSA,A,3,07,06,13,23,03,,,,,,,,5.17,2.92,4.26*09
$GPGSV,3,1,11,03,63,168,33,06,66,111,27,07,20,302,29,13,56,284,28*7A
$GPGSV,3,2,11,16,,,18,19,,,27,23,58,230,28,30,37,059,08*7F
$GPGSV,3,3,11,31,15,112,,46,39,216,,51,31,226,28*4A
$GPGLL,4118.73142,N,07255.52471,W,022146.00,A,A*77
$GPRMC,022147.00,A,4118.73176,N,07255.52521,W,1.907,,150213,,,A*67
$GPVTG,,T,,M,1.907,N,3.532,K,A*2B
$GPGGA,022147.00,4118.73176,N,07255.52521,W,1,05,2.92,46.4,M,-34.1,M,,*51
$GPGSA,A,3,07,06,13,23,03,,,,,,,,5.17,2.92,4.27*08
$GPGSV,3,1,11,03,63,168,36,06,66,111,25,07,20,302,29,13,56,284,33*77
$GPGSV,3,2,11,16,,,17,19,,,28,23,57,230,28,30,37,059,07*7F
$GPGSV,3,3,11,31,15,112,,46,39,216,,51,31,226,*40
$GPGLL,4118.73176,N,07255.52521,W,022147.00,A,A*75
$GPRMC,022148.00,A,4118.73258,N,07255.52532,W,1.920,,150213,,,A*60
$GPVTG,,T,,M,1.920,N,3.556,K,A*2C
$GPGGA,022148.00,4118.73258,N,07255.52532,W,1,05,2.92,47.2,M,-34.1,M,,*54
$GPGSA,A,3,07,06,13,23,03,,,,,,,,5.17,2.92,4.27*08
$GPGSV,3,1,11,03,63,168,36,06,66,111,22,07,20,302,27,13,56,284,34*79
$GPGSV,3,2,11,16,,,18,19,,,28,23,57,230,33,30,37,059,07*7A
$GPGSV,3,3,11,31,15,112,,46,39,216,,51,31,226,*40
$GPGLL,4118.73258,N,07255.52532,W,022148.00,A,A*77
$GPRMC,022149.00,A,4118.73317,N,07255.52559,W,2.066,,150213,,,A*6E
$GPVTG,,T,,M,2.066,N,3.827,K,A*2F
$GPGGA,022149.00,4118.73317,N,07255.52559,W,1,05,2.92,47.6,M,-34.1,M,,*56
$GPGSA,A,3,07,06,13,23,03,,,,,,,,5.17,2.92,4.27*08
$GPGSV,3,1,11,03,63,168,37,06,66,111,19,07,20,302,31,13,56,284,32*71
$GPGSV,3,2,11,16,,,18,19,,,27,23,57,230,29,30,37,059,06*7F
$GPGSV,3,3,11,31,15,112,,46,39,216,,51,31,226,*40
$GPGLL,4118.73317,N,07255.52559,W,022149.00,A,A*71
$GPRMC,022150.00,A,4118.73392,N,07255.52503,W,2.329,,150213,,,A*6C
$GPVTG,,T,,M,2.329,N,4.314,K,A*2B
$GPGGA,022150.00,4118.73392,N,07255.52503,W,1,05,2.92,46.2,M,-34.1,M,,*59
$GPGSA,A,3,07,06,13,23,03,,,,,,,,5.17,2.92,4.27*08
$GPGSV,3,1,11,03,63,168,35,06,66,111,15,07,20,302,26,13,56,284,38*73
$GPGSV,3,2,11,16,,,20,19,,,33,23,57,230,28,30,37,059,06*70
$GPGSV,3,3,11,31,15,112,,46,39,216,,51,31,226,*40
$GPGLL,4118.73392,N,07255.52503,W,022150.00,A,A*7B
$GPRMC,022151.00,A,4118.73488,N,07255.52476,W,2.724,,150213,,,A*6B
$GPVTG,,T,,M,2.724,N,5.045,K,A*24
$GPGGA,022151.00,4118.73488,N,07255.52476,W,1,04,4.81,46.0,M,-34.1,M,,*50
$GPGSA,A,3,07,13,23,03,,,,,,,,,6.53,4.81,4.42*0A
$GPGSV,3,1,11,03,63,168,29,06,66,111,09,07,20,302,26,13,56,284,31*7A
$GPGSV,3,2,11,16,,,20,19,,,27,23,57,230,27,30,37,059,05*79
$GPGSV,3,3,11,31,15,112,,46,39,216,,51,31,226,*40
$GPGLL,4118.73488,N,07255.52476,W,022151.00,A,A*75
$GPRMC,022152.00,A,4118.73562,N,07255.52439,W,2.654,,150213,,,A*60
$GPVTG,,T,,M,2.654,N,4.915,K,A*2F
$GPGGA,022152.00,4118.73562,N,07255.52439,W,1,04,4.81,45.3,M,-34.1,M,,*5D
$GPGSA,A,3,07,13,23,03,,,,,,,,,6.53,4.81,4.42*0A
$GPGSV,3,1,11,03,63,168,28,06,66,111,09,07,20,302,26,13,56,284,34*7E
$GPGSV,3,2,11,16,,,29,19,,,35,23,57,230,32,30,37,059,05*77
$GPGSV,3,3,11,31,15,112,,46,39,216,,51,31,226,28*4A
$GPGLL,4118.73562,N,07255.52439,W,022152.00,A,A*78
$GPRMC,022153.00,A,4118.73665,N,07255.52387,W,2.746,,150213,,,A*65
$GPVTG,,T,,M,2.746,N,5.085,K,A*2C
$GPGGA,022153.00,4118.73665,N,07255.52387,W,1,05,2.92,46.6,M,-34.1,M,,*59
$GPGSA,A,3,07,06,13,23,03,,,,,,,,5.18,2.92,4.28*08
$GPGSV,3,1,11,03,63,168,25,06,66,111,11,07,20,302,25,13,56,284,31*7C
$GPGSV,3,2,11,16,,,24,19,,,29,23,57,230,27,30,37,059,08*7E
$GPGSV,3,3,11,31,15,112,,46,39,216,,51,31,226,27*45
$GPGLL,4118.73665,N,07255.52387,W,022153.00,A,A*7F
$GPRMC,022154.00,A,4118.73706,N,07255.52419,W,2.471,,150213,,,A*61
$GPVTG,,T,,M,2.471,N,4.576,K,A*23
$GPGGA,022154.00,4118.73706,N,07255.52419,W,1,05,2.92,46.8,M,-34.1,M,,*54
$GPGSA,A,3,07,06,13,23,03,,,,,,,,5.18,2.92,4.28*08
$GPGSV,3,1,11,03,63,168,25,06,66,111,25,07,20,302,24,13,56,284,31*7A
$GPGSV,3,2,11,16,,,22,19,,,28,23,57,230,32,30,36,060,08*76
$GPGSV,3,3,11,31,15,112,,46,39,216,,51,31,226,28*4A
$GPGLL,4118.73706,N,07255.52419,W,022154.00,A,A*7C
$GPRMC,022155.00,A,4118.73771,N,07255.52378,W,2.377,,150213,,,A*61
$GPVTG,,T,,M,2.377,N,4.402,K,A*20
$GPGGA,022155.00,4118.73771,N,07255.52378,W,1,05,2.92,46.8,M,-34.1,M,,*55
$GPGSA,A,3,07,06,13,23,03,,,,,,,,5.18,2.92,4.28*08
$GPGSV,3,1,11,03,63,168,31,06,66,111,38,07,20,302,22,13,56,284,26*73
$GPGSV,3,2,11,16,,,21,19,,,25,23,57,230,26,30,36,060,08*7D
$GPGSV,3,3,11,31,15,112,,46,39,216,,51,31,226,27*45
$GPGLL,4118.73771,N,07255.52378,W,022155.00,A,A*7D
$GPRMC,022156.00,A,4118.73844,N,07255.52294,W,2.473,,150213,,,A*6B
$GPVTG,,T,,M,2.473,N,4.579,K,A*2E
$GPGGA,022156.00,4118.73844,N,07255.52294,W,1,05,2.91,46.6,M,-34.1,M,,*51
$GPGSA,A,3,07,06,13,23,03,,,,,,,,5.18,2.91,4.28*0B
$GPGSV,3,1,11,03,63,168,31,06,66,111,38,07,20,302,22,13,56,284,31*75
$GPGSV,3,2,11,16,,,18,19,,,21,23,57,230,28,30,36,060,08*7D
$GPGSV,3,3,11,31,15,112,,46,39,216,,51,31,226,*40
$GPGLL,4118.73844,N,07255.52294,W,022156.00,A,A*74
$GPRMC,022157.00,A,4118.73886,N,07255.52246,W,2.307,,150213,,,A*6F
$GPVTG,,T,,M,2.307,N,4.272,K,A*26
$GPGGA,022157.00,4118.73886,N,07255.52246,W,1,05,2.91,46.3,M,-34.1,M,,*54
$GPGSA,A,3,07,06,13,23,03,,,,,,,,5.18,2.91,4.28*0B
$GPGSV,3,1,11,03,63,168,31,06,66,111,38,07,20,302,23,13,56,284,31*74
$GPGSV,3,2,11,16,,,17,19,,,17,23,57,230,26,30,36,060,08*79
$GPGSV,3,3,11,31,15,112,,46,39,216,,51,31,226,27*45
$GPGLL,4118.73886,N,07255.52246,W,022157.00,A,A*74
$GPRMC,022158.00,A,4118.73936,N,07255.52321,W,2.197,,150213,,,A*61
$GPVTG,,T,,M,2.197,N,4.069,K,A*25
$GPGGA,022158.00,4118.73936,N,07255.52321,W,1,05,2.91,46.1,M,-34.1,M,,*53
$GPGSA,A,3,07,06,13,23,03,,,,,,,,5.18,2.91,4.29*0A
$GPGSV,3,1,11,03,63,168,36,06,66,111,37,07,20,302,24,13,56,284,32*78
$GPGSV,3,2,11,16,,,15,19,,,14,23,57,230,23,30,36,060,09*7C
$GPGSV,3,3,11,31,15,112,,46,39,216,,51,31,226,27*45
$GPGLL,4118.73936,N,07255.52321,W,022158.00,A,A*71
$GPRMC,022159.00,A,4118.74063,N,07255.52270,W,2.718,9.07,150213,,,A*7A
$GPVTG,9.07,T,,M,2.718,N,5.035,K,A*3C
$GPGGA,022159.00,4118.74063,N,07255.52270,W,1,05,2.91,46.2,M,-34.1,M,,*5A
$GPGSA,A,3,07,06,13,23,03,,,,,,,,5.18,2.91,4.29*0A
$GPGSV,3,1,11,03,63,168,36,06,66,111,35,07,20,302,25,13,56,284,27*7F
$GPGSV,3,2,11,16,,,13,19,,,13,23,57,230,22,30,36,060,16*72
$GPGSV,3,3,11,31,15,112,,46,39,216,,51,31,226,*40
$GPGLL,4118.74063,N,07255.52270,W,022159.00,A,A*7B
$GPRMC,022200.00,A,4118.74151,N,07255.52251,W,2.884,6.70,150213,,,A*73
$GPVTG,6.70,T,,M,2.884,N,5.341,K,A*39
$GPGGA,022200.00,4118.74151,N,07255.52251,W,1,05,2.91,44.9,M,-34.1,M,,*5F
$GPGSA,A,3,07,06,13,23,03,,,,,,,,5.19,2.91,4.29*0B
$GPGSV,3,1,11,03,63,168,34,06,66,111,35,07,20,302,30,13,56,284,27*79
$GPGSV,3,2,11,16,,,14,19,,,17,23,57,230,25,30,36,060,16*76
$GPGSV,3,3,11,31,15,112,,46,39,216,,51,31,226,27*45
$GPGLL,4118.74151,N,07255.52251,W,022200.00,A,A*77
$GPRMC,022201.00,A,4118.74184,N,07255.52196,W,2.286,14.65,150213,,,A*4D
$GPVTG,14.65,T,,M,2.286,N,4.234,K,A*04
$GPGGA,022201.00,4118.74184,N,07255.52196,W,1,05,2.91,43.6,M,-34.1,M,,*56
$GPGSA,A,3,07,06,13,23,03,,,,,,,,5.19,2.91,4.29*0B
$GPGSV,3,1,11,03,63,168,36,06,66,111,30,07,20,302,25,13,56,284,26*7B
$GPGSV,3,2,11,16,,,14,19,,,19,23,57,230,25,30,36,060,16*78
$GPGSV,3,3,11,31,15,112,,46,39,216,,51,31,226,28*4A
$GPGLL,4118.74184,N,07255.52196,W,022201.00,A,A*76
$GPRMC,022202.00,A,4118.74276,N,07255.52158,W,2.304,17.55,150213,,,A*49
$GPVTG,17.55,T,,M,2.304,N,4.268,K,A*06
$GPGGA,022202.00,4118.74276,N,07255.52158,W,1,05,2.91,44.3,M,-34.1,M,,*5B
$GPGSA,A,3,07,06,13,23,03,,,,,,,,5.19,2.91,4.29*0B
$GPGSV,3,1,11,03,63,168,29,06,66,111,21,07,20,302,24,13,56,284,27*75
$GPGSV,3,2,11,16,,,14,19,,,19,23,57,230,24,30,36,060,16*79
$GPGSV,3,3,11,31,15,112,,46,39,216,,51,31,226,36*45
$GPGLL,4118.74276,N,07255.52158,W,022202.00,A,A*79
$GPRMC,022203.00,A,4118.74362,N,07255.52058,W,2.368,28.22,150213,,,A*4B
$GPVTG,28.22,T,,M,2.368,N,4.386,K,A*01
$GPGGA,022203.00,4118.74362,N,07255.52058,W,1,05,2.91,44.2,M,-34.1,M,,*5E
$GPGSA,A,3,07,06,13,23,03,,,,,,,,5.19,2.91,4.29*0B
$GPGSV,3,1,11,03,63,168,36,06,66,111,19,07,20,302,26,13,56,284,31*75
$GPGSV,3,2,11,16,,,14,19,,,19,23,57,230,34,30,36,060,16*78
$GPGSV,3,3,11,31,15,112,,46,39,216,,51,31,226,31*42
$GPGLL,4118.74362,N,07255.52058,W,022203.00,A,A*7D
$GPRMC,022204.00,A,4118.74406,N,07255.51979,W,2.519,38.05,150213,,,A*44
$GPVTG,38.05,T,,M,2.519,N,4.665,K,A*0D
$GPGGA,022204.00,4118.74406,N,07255.51979,W,1,05,2.91,42.9,M,-34.1,M,,*58
$GPGSA,A,3,07,06,13,23,03,,,,,,,,5.19,2.91,4.30*03
$GPGSV,3,1,11,03,63,168,34,06,66,111,18,07,20,302,24,13,56,284,31*74
$GPGSV,3,2,11,16,,,15,19,,,17,23,57,230,24,30,36,060,16*76
$GPGSV,3,3,11,31,15,112,,46,39,216,,51,31,226,32*41
$GPGLL,4118.74406,N,07255.51979,W,022204.00,A,A*76
$GPRMC,022205.00,A,4118.74436,N,07255.51846,W,2.674,47.32,150213,,,A*4F
$GPVTG,47.32,T,,M,2.674,N,4.952,K,A*02
$GPGGA,022205.00,4118.74436,N,07255.51846,W,1,05,2.91,40.9,M,-34.1,M,,*55
$GPGSA,A,3,07,06,13,23,03,,,,,,,,5.19,2.91,4.30*03
$GPGSV,3,1,11,03,63,168,29,06,66,111,16,07,20,302,23,13,56,284,24*75
$GPGSV,3,2,11,16,,,08,19,,,16,23,57,230,29,30,36,060,16*76
$GPGSV,3,3,11,31,15,112,,46,39,216,,51,31,226,29*4B
$GPGLL,4118.74436,N,07255.51846,W,022205.00,A,A*79
$GPRMC,022206.00,A,4118.74397,N,07255.51846,W,1.726,,150213,,,A*69
$GPVTG,,T,,M,1.726,N,3.196,K,A*2C
$GPGGA,022206.00,4118.74397,N,07255.51846,W,1,05,2.91,39.5,M,-34.1,M,,*58
$GPGSA,A,3,07,06,13,23,03,,,,,,,,5.19,2.91,4.30*03
$GPGSV,3,1,11,03,63,168,30,06,66,111,14,07,20,302,23,13,56,284,21*7A
$GPGSV,3,2,11,16,,,08,19,,,13,23,57,230,22,30,36,060,16*78
$GPGSV,3,3,11,31,15,112,,46,39,216,,51,31,226,26*44
$GPGLL,4118.74397,N,07255.51846,W,022206.00,A,A*76
$GPRMC,022207.00,A,4118.74352,N,07255.51875,W,1.050,,150213,,,A*67
$GPVTG,,T,,M,1.050,N,1.944,K,A*2F
$GPGGA,022207.00,4118.74352,N,07255.51875,W,1,05,2.91,38.9,M,-34.1,M,,*5D
$GPGSA,A,3,07,06,13,23,03,,,,,,,,5.20,2.91,4.30*09
$GPGSV,3,1,11,03,63,168,21,06,66,111,11,07,20,302,20,13,56,284,20*7D
$GPGSV,3,2,11,16,,,08,19,,,11,23,57,230,22,30,36,060,16*7A
$GPGSV,3,3,11,31,15,112,,46,39,216,,51,31,226,*40
$GPGLL,4118.74352,N,07255.51875,W,022207.00,A,A*7E
$GPRMC,022208.00,A,4118.74367,N,07255.51873,W,0.581,,150213,,,A*60
$GPVTG,,T,,M,0.581,N,1.076,K,A*2F
$GPGGA,022208.00,4118.74367,N,07255.51873,W,1,04,4.78,38.3,M,-34.1,M,,*58
$GPGSA,A,3,07,13,23,03,,,,,,,,,6.53,4.78,4.45*0B
$GPGSV,3,1,11,03,63,168,19,06,66,111,09,07,20,302,21,13,56,284,21*7F
$GPGSV,3,2,11,16,,,08,19,,,10,23,57,230,25,30,36,060,16*7C
$GPGSV,3,3,11,31,15,112,,46,39,216,,51,31,226,*40
$GPGLL,4118.74367,N,07255.51873,W,022208.00,A,A*71
$GPRMC,022209.00,A,4118.74369,N,07255.51879,W,0.318,,150213,,,A*63
$GPVTG,,T,,M,0.318,N,0.589,K,A*2D
$GPGGA,022209.00,4118.74369,N,07255.51879,W,1,04,4.78,37.9,M,-34.1,M,,*58
$GPGSA,A,3,07,13,23,03,,,,,,,,,6.53,4.78,4.45*0B
$GPGSV,3,1,11,03,63,168,17,06,66,111,09,07,20,302,22,13,56,284,24*77
$GPGSV,3,2,11,16,,,08,19,,,10,23,57,230,25,30,36,060,16*7C
$GPGSV,3,3,11,31,15,112,,46,39,216,,51,31,226,27*45
$GPGLL,4118.74369,N,07255.51879,W,022209.00,A,A*74
$GPRMC,022210.00,A,4118.74427,N,07255.51841,W,0.532,,150213,,,A*63
$GPVTG,,T,,M,0.532,N,0.986,K,A*20
$GPGGA,022210.00,4118.74427,N,07255.51841,W,1,04,4.77,37.4,M,-34.1,M,,*54
$GPGSA,A,3,07,13,23,03,,,,,,,,,6.53,4.77,4.45*04
$GPGSV,3,1,11,03,63,168,16,06,66,111,,07,20,302,21,13,56,284,23*7B
$GPGSV,3,2,11,16,,,08,19,,,10,23,57,230,23,30,36,060,*7D
$GPGSV,3,3,11,31,15,112,,46,39,216,,51,31,226,*40
$GPGLL,4118.74427,N,07255.51841,W,022210.00,A,A*7A
$GPRMC,022211.00,A,4118.74396,N,07255.51770,W,0.512,,150213,,,A*60
$GPVTG,,T,,M,0.512,N,0.948,K,A*20
$GPGGA,022211.00,4118.74396,N,07255.51770,W,1,04,4.77,35.6,M,-34.1,M,,*55
$GPGSA,A,3,07,13,23,03,,,,,,,,,6.53,4.77,4.45*04
$GPGSV,3,1,11,03,63,168,14,06,66,111,,07,20,302,21,13,56,284,22*78
$GPGSV,3,2,11,16,,,09,19,,,09,23,57,230,20,30,36,060,*77
$GPGSV,3,3,11,31,15,112,,46,39,216,,51,31,226,*40
$GPGLL,4118.74396,N,07255.51770,W,022211.00,A,A*7B
$GPRMC,022212.00,A,4118.74406,N,07255.51756,W,0.425,,150213,,,A*6C
$GPVTG,,T,,M,0.425,N,0.788,K,A*27
$GPGGA,022212.00,4118.74406,N,07255.51756,W,1,04,4.77,35.1,M,-34.1,M,,*5B
$GPGSA,A,3,07,13,23,03,,,,,,,,,6.53,4.77,4.45*04
$GPGSV,3,1,11,03,63,168,10,06,66,111,,07,20,302,22,13,56,284,22*7F
$GPGSV,3,2,11,16,,,09,19,,,09,23,57,230,20,30,36,060,*77
$GPGSV,3,3,11,31,15,112,,46,39,216,,51,31,226,*40
$GPGLL,4118.74406,N,07255.51756,W,022212.00,A,A*72
$GPRMC,022213.00,A,4118.74478,N,07255.51736,W,0.753,,150213,,,A*60
$GPVTG,,T,,M,0.753,N,1.395,K,A*2C
$GPGGA,022213.00,4118.74478,N,07255.51736,W,1,03,17.08,38.8,M,-34.1,M,,*6C
$GPGSA,A,2,07,13,23,,,,,,,,,,17.11,17.08,1.00*0E
$GPGSV,3,1,11,03,63,168,08,06,66,111,,07,20,302,21,13,56,284,20*77
$GPGSV,3,2,11,16,,,09,19,,,09,23,57,230,19,30,36,060,*7D
$GPGSV,3,3,11,31,15,112,,46,39,216,,51,31,226,*40
$GPGLL,4118.74478,N,07255.51736,W,022213.00,A,A*7C
$GPRMC,022214.00,V,,,,,,,150213,,,N*7E
$GPVTG,,,,,,,,,N*30
$GPGGA,022214.00,,,,,0,00,99.99,,,,,,*61
$GPGSA,A,1,,,,,,,,,,,,,99.99,99.99,99.99*30
$GPGSV,3,1,12,03,63,168,,06,66,111,,07,20,302,19,13,56,284,17*73
$GPGSV,3,2,12,15,,,24,16,,,07,19,,,08,23,57,230,16*4C
$GPGSV,3,3,12,30,36,060,,31,15,112,,46,39,216,,51,31,226,*73
$GPGLL,,,,,022214.00,V,N*4D
$GPRMC,022215.00,V,,,,,,,150213,,,N*7F
$GPVTG,,,,,,,,,N*30
$GPGGA,022215.00,,,,,0,00,99.99,,,,,,*60
$GPGSA,A,1,,,,,,,,,,,,,99.99,99.99,99.99*30
$GPGSV,3,1,12,03,63,168,,06,66,111,05,07,20,302,17,13,56,284,14*7B
$GPGSV,3,2,12,15,,,22,16,,,07,19,,,08,23,57,230,14*48
$GPGSV,3,3,12,30,36,060,,31,15,112,,46,39,216,,51,31,226,*73
$GPGLL,,,,,022215.00,V,N*4C
$GPRMC,022216.00,V,,,,,,,150213,,,N*7C
$GPVTG,,,,,,,,,N*30
$GPGGA,022216.00,,,,,0,00,99.99,,,,,,*63
$GPGSA,A,1,,,,,,,,,,,,,99.99,99.99,99.99*30
$GPGSV,3,1,10,03,63,168,,06,66,111,06,07,20,302,15,13,56,284,11*7D
$GPGSV,3,2,10,15,,,21,23,57,230,,30,36,060,,31,15,112,*48
$GPGSV,3,3,10,46,39,216,,51,31,226,*75
$GPGLL,,,,,022216.00,V,N*4F
$GPRMC,022217.00,V,,,,,,,150213,,,N*7D
$GPVTG,,,,,,,,,N*30
$GPGGA,022217.00,,,,,0,00,99.99,,,,,,*62
$GPGSA,A,1,,,,,,,,,,,,,99.99,99.99,99.99*30
$GPGSV,3,1,10,03,63,168,,06,66,111,07,07,20,302,12,13,56,284,09*72
$GPGSV,3,2,10,15,,,19,23,57,230,,30,36,060,,31,15,112,*43
$GPGSV,3,3,10,46,39,216,,51,31,226,*75
$GPGLL,,,,,022217.00,V,N*4E
$GPRMC,022218.00,V,,,,,,,150213,,,N*72
$GPVTG,,,,,,,,,N*30
$GPGGA,022218.00,,,,,0,00,99.99,,,,,,*6D
$GPGSA,A,1,,,,,,,,,,,,,99.99,99.99,99.99*30
$GPGSV,3,1,10,03,63,168,,06,66,111,07,07,20,302,10,13,56,284,09*70
$GPGSV,3,2,10,15,,,16,23,57,230,,30,36,060,,31,15,112,*4C
$GPGSV,3,3,10,46,39,216,,51,31,226,*75
$GPGLL,,,,,022218.00,V,N*41
$GPRMC,022219.00,V,,,,,,,150213,,,N*73
$GPVTG,,,,,,,,,N*30
$GPGGA,022219.00,,,,,0,00,99.99,,,,,,*6C
$GPGSA,A,1,,,,,,,,,,,,,99.99,99.99,99.99*30
$GPGSV,3,1,10,03,63,168,,06,66,111,07,07,20,302,10,13,56,284,08*71
$GPGSV,3,2,10,15,,,15,23,57,230,,30,36,060,,31,15,112,*4F
$GPGSV,3,3,10,46,39,216,,51,31,226,*75
$GPGLL,,,,,022219.00,V,N*40
$GPRMC,022220.00,V,,,,,,,150213,,,N*79
$GPVTG,,,,,,,,,N*30
$GPGGA,022220.00,,,,,0,00,99.99,,,,,,*66
$GPGSA,A,1,,,,,,,,,,,,,99.99,99.99,99.99*30
$GPGSV,3,1,10,03,63,168,,06,66,111,08,07,20,302,11,13,56,284,09*7E
$GPGSV,3,2,10,15,,,15,23,57,230,,30,36,060,,31,15,112,*4F
$GPGSV,3,3,10,46,39,216,,51,31,226,*75
$GPGLL,,,,,022220.00,V,N*4A
$GPRMC,022221.00,V,,,,,,,150213,,,N*78
$GPVTG,,,,,,,,,N*30
$GPGGA,022221.00,,,,,0,00,99.99,,,,,,*67
$GPGSA,A,1,,,,,,,,,,,,,99.99,99.99,99.99*30
$GPGSV,3,1,10,03,63,168,,06,66,111,08,07,20,302,12,13,56,284,11*74
$GPGSV,3,2,10,15,,,12,23,57,230,,30,36,060,,31,15,112,*48
$GPGSV,3,3,10,46,39,216,,51,31,226,*75
$GPGLL,,,,,022221.00,V,N*4B
$GPRMC,022222.00,V,,,,,,,150213,,,N*7B
$GPVTG,,,,,,,,,N*30
$GPGGA,022222.00,,,,,0,00,99.99,,,,,,*64
$GPGSA,A,1,,,,,,,,,,,,,99.99,99.99,99.99*30
$GPGSV,3,1,10,03,63,168,,06,66,111,08,07,20,302,13,13,56,284,*75
$GPGSV,3,2,10,15,,,09,23,57,230,,30,36,060,,31,15,112,*42
$GPGSV,3,3,10,46,39,216,,51,31,226,*75
$GPGLL,,,,,022222.00,V,N*48
$GPRMC,022223.00,V,,,,,,,150213,,,N*7A
$GPVTG,,,,,,,,,N*30
$GPGGA,022223.00,,,,,0,00,99.99,,,,,,*65
$GPGSA,A,1,,,,,,,,,,,,,99.99,99.99,99.99*30
$GPGSV,3,1,10,03,63,168,,06,66,111,05,07,20,302,07,13,56,284,*7D
$GPGSV,3,2,10,15,,,08,23,57,230,,30,36,060,,31,15,112,*43
$GPGSV,3,3,10,46,39,216,,51,31,226,*75
$GPGLL,,,,,022223.00,V,N*49
$GPRMC,022224.00,V,,,,,,,150213,,,N*7D
$GPVTG,,,,,,,,,N*30
$GPGGA,022224.00,,,,,0,00,99.99,,,,,,*62
$GPGSA,A,1,,,,,,,,,,,,,99.99,99.99,99.99*30
$GPGSV,3,1,10,03,63,168,,06,66,111,05,07,20,302,06,13,56,284,*7C
$GPGSV,3,2,10,15,,,07,23,57,230,,30,36,060,,31,15,112,*4C
$GPGSV,3,3,10,46,39,216,,51,31,226,*75
$GPGLL,,,,,022224.00,V,N*4E
$GPRMC,022225.00,V,,,,,,,150213,,,N*7C
$GPVTG,,,,,,,,,N*30
$GPGGA,022225.00,,,,,0,00,99.99,,,,,,*63
$GPGSA,A,1,,,,,,,,,,,,,99.99,99.99,99.99*30
$GPGSV,3,1,09,03,63,168,05,06,66,111,04,07,20,302,,13,56,284,*76
$GPGSV,3,2,09,23,57,230,12,30,36,060,,31,15,112,,46,39,216,*79
$GPGSV,3,3,09,51,31,226,*40
$GPGLL,,,,,022225.00,V,N*4F
$GPRMC,022226.00,V,,,,,,,150213,,,N*7F
$GPVTG,,,,,,,,,N*30
$GPGGA,022226.00,,,,,0,00,99.99,,,,,,*60
$GPGSA,A,1,,,,,,,,,,,,,99.99,99.99,99.99*30
$GPGSV,3,1,09,03,63,168,06,06,66,111,04,07,20,302,,13,56,284,*75
$GPGSV,3,2,09,23,57,230,09,30,36,060,,31,15,112,,46,39,216,*73
$GPGSV,3,3,09,51,31,226,*40
$GPGLL,,,,,022226.00,V,N*4C
$GPRMC,022227.00,V,,,,,,,150213,,,N*7E
$GPVTG,,,,,,,,,N*30
$GPGGA,022227.00,,,,,0,00,99.99,,,,,,*61
$GPGSA,A,1,,,,,,,,,,,,,99.99,99.99,99.99*30
$GPGSV,3,1,09,03,63,168,06,06,66,111,04,07,20,302,,13,56,284,*75
$GPGSV,3,2,09,23,57,230,08,30,36,060,,31,15,112,,46,39,216,*72
$GPGSV,3,3,09,51,31,226,*40
$GPGLL,,,,,022227.00,V,N*4D
$GPRMC,022228.00,V,,,,,,,150213,,,N*71
$GPVTG,,,,,,,,,N*30
$GPGGA,022228.00,,,,,0,00,99.99,,,,,,*6E
$GPGSA,A,1,,,,,,,,,,,,,99.99,99.99,99.99*30
$GPGSV,3,1,09,03,63,168,17,06,66,111,04,07,20,302,17,13,56,284,18*7A
$GPGSV,3,2,09,23,57,230,,30,36,060,,31,15,112,,46,39,216,*7A
$GPGSV,3,3,09,51,31,226,*40
$GPGLL,,,,,022228.00,V,N*42
$GPRMC,022229.00,V,,,,,,,150213,,,N*70
$GPVTG,,,,,,,,,N*30
$GPGGA,022229.00,,,,,0,00,99.99,,,,,,*6F
$GPGSA,A,1,,,,,,,,,,,,,99.99,99.99,99.99*30
$GPGSV,3,1,09,03,63,168,15,06,66,111,06,07,20,302,15,13,56,284,15*75
$GPGSV,3,2,09,23,57,230,,30,36,060,,31,15,112,,46,39,216,*7A
$GPGSV,3,3,09,51,31,226,*40
$GPGLL,,,,,022229.00,V,N*43
$GPRMC,022230.00,V,,,,,,,150213,,,N*78
$GPVTG,,,,,,,,,N*30
$GPGGA,022230.00,,,,,0,00,99.99,,,,,,*67
$GPGSA,A,1,,,,,,,,,,,,,99.99,99.99,99.99*30
$GPGSV,3,1,09,03,63,168,14,06,66,111,06,07,20,302,12,13,56,284,*77
$GPGSV,3,2,09,23,57,230,,30,36,060,,31,15,112,,46,39,216,*7A
$GPGSV,3,3,09,51,31,226,*40
$GPGLL,,,,,022230.00,V,N*4B
$GPRMC,022231.00,V,,,,,,,150213,,,N*79
$GPVTG,,,,,,,,,N*30
$GPGGA,022231.00,,,,,0,00,99.99,,,,,,*66
$GPGSA,A,1,,,,,,,,,,,,,99.99,99.99,99.99*30
$GPGSV,3,1,09,03,63,168,10,06,66,111,,07,20,302,11,13,56,284,*76
$GPGSV,3,2,09,23,57,230,,30,36,060,,31,15,112,,46,39,216,*7A
$GPGSV,3,3,09,51,31,226,*40
$GPGLL,,,,,022231.00,V,N*4A
$GPRMC,022232.00,V,,,,,,,150213,,,N*7A
$GPVTG,,,,,,,,,N*30
$GPGGA,022232.00,,,,,0,00,99.99,,,,,,*65
$GPGSA,A,1,,,,,,,,,,,,,99.99,99.99,99.99*30
$GPGSV,3,1,09,03,63,168,08,06,66,111,,07,20,302,10,13,56,284,*7E
$GPGSV,3,2,09,23,57,230,16,30,36,060,,31,15,112,,46,39,216,*7D
$GPGSV,3,3,09,51,31,226,*40
$GPGLL,,,,,022232.00,V,N*49
$GPRMC,022233.00,V,,,,,,,150213,,,N*7B
$GPVTG,,,,,,,,,N*30
$GPGGA,022233.00,,,,,0,00,99.99,,,,,,*64
$GPGSA,A,1,,,,,,,,,,,,,99.99,99.99,99.99*30
$GPGSV,3,1,09,03,63,168,,06,66,111,,07,20,302,11,13,56,284,*77
$GPGSV,3,2,09,23,57,230,13,30,36,060,,31,15,112,,46,39,216,*78
$GPGSV,3,3,09,51,31,226,*40
$GPGLL,,,,,022233.00,V,N*48
$GPRMC,022234.00,V,,,,,,,150213,,,N*7C
$GPVTG,,,,,,,,,N*30
$GPGGA,022234.00,,,,,0,00,99.99,,,,,,*63
$GPGSA,A,1,,,,,,,,,,,,,99.99,99.99,99.99*30
$GPGSV,3,1,09,03,63,168,,06,66,111,,07,20,302,08,13,56,284,*7F
$GPGSV,3,2,09,23,57,230,10,30,36,060,,31,15,112,,46,39,216,*7B
$GPGSV,3,3,09,51,31,226,*40
$GPGLL,,,,,022234.00,V,N*4F
$GPRMC,022235.00,V,,,,,,,150213,,,N*7D
$GPVTG,,,,,,,,,N*30
$GPGGA,022235.00,,,,,0,00,99.99,,,,,,*62
$GPGSA,A,1,,,,,,,,,,,,,99.99,99.99,99.99*30
$GPGSV,3,1,09,03,63,168,,06,66,111,,07,20,302,08,13,56,284,*7F
$GPGSV,3,2,09,23,57,230,08,30,36,060,,31,15,112,,46,39,216,*72
$GPGSV,3,3,09,51,31,226,*40
$GPGLL,,,,,022235.00,V,N*4E
$GPRMC,022236.00,V,,,,,,,150213,,,N*7E
$GPVTG,,,,,,,,,N*30
$GPGGA,022236.00,,,,,0,00,99.99,,,,,,*61
$GPGSA,A,1,,,,,,,,,,,,,99.99,99.99,99.99*30
$GPGSV,3,1,09,03,63,168,,06,66,111,,07,20,302,09,13,56,284,*7E
$GPGSV,3,2,09,23,57,230,08,30,36,060,,31,15,112,,46,39,216,*72
$GPGSV,3,3,09,51,31,226,*40
$GPGLL,,,,,022236.00,V,N*4D
$GPRMC,022237.00,V,,,,,,,150213,,,N*7F
$GPVTG,,,,,,,,,N*30
$GPGGA,022237.00,,,,,0,00,99.99,,,,,,*60
$GPGSA,A,1,,,,,,,,,,,,,99.99,99.99,99.99*30
$GPGSV,3,1,09,03,63,168,,06,66,111,,07,20,302,10,13,56,284,*76
$GPGSV,3,2,09,23,57,230,08,30,36,060,,31,15,112,,46,39,216,*72
$GPGSV,3,3,09,51,31,226,*40
$GPGLL,,,,,022237.00,V,N*4C
$GPRMC,022238.00,V,,,,,,,150213,,,N*70
$GPVTG,,,,,,,,,N*30
$GPGGA,022238.00,,,,,0,00,99.99,,,,,,*6F
$GPGSA,A,1,,,,,,,,,,,,,99.99,99.99,99.99*30
$GPGSV,3,1,09,03,63,167,,06,66,111,,07,20,302,08,13,56,284,*70
$GPGSV,3,2,09,23,57,230,08,30,36,060,,31,15,112,,46,39,216,*72
$GPGSV,3,3,09,51,31,226,*40
$GPGLL,,,,,022238.00,V,N*43
$GPRMC,022239.00,V,,,,,,,150213,,,N*71
$GPVTG,,,,,,,,,N*30
$GPGGA,022239.00,,,,,0,00,99.99,,,,,,*6E
$GPGSA,A,1,,,,,,,,,,,,,99.99,99.99,99.99*30
$GPGSV,3,1,09,03,63,167,,06,66,111,,07,20,302,08,13,56,284,*70
$GPGSV,3,2,09,23,57,230,,30,36,060,,31,15,112,,46,39,216,*7A
$GPGSV,3,3,09,51,31,226,*40
$GPGLL,,,,,022239.00,V,N*42
$GPRMC,022240.00,V,,,,,,,150213,,,N*7F
$GPVTG,,,,,,,,,N*30
$GPGGA,022240.00,,,,,0,00,99.99,,,,,,*60
$GPGSA,A,1,,,,,,,,,,,,,99.99,99.99,99.99*30
$GPGSV,3,1,09,03,63,167,,06,66,111,,07,20,302,,13,56,284,*78
$GPGSV,3,2,09,23,57,230,,30,36,060,,31,15,112,,46,39,216,*7A
$GPGSV,3,3,09,51,31,226,*40
$GPGLL,,,,,022240.00,V,N*4C
$GPRMC,022241.00,V,,,,,,,150213,,,N*7E
$GPVTG,,,,,,,,,N*30
$GPGGA,022241.00,,,,,0,00,99.99,,,,,,*61
$GPGSA,A,1,,,,,,,,,,,,,99.99,99.99,99.99*30
$GPGSV,3,1,09,03,63,167,24,06,66,110,,07,20,302,,13,56,284,*7F
$GPGSV,3,2,09,23,57,230,,30,36,060,,31,15,112,,46,39,216,*7A
$GPGSV,3,3,09,51,31,226,*40
$GPGLL,,,,,022241.00,V,N*4D
$GPRMC,022242.00,V,,,,,,,150213,,,N*7D
$GPVTG,,,,,,,,,N*30
$GPGGA,022242.00,,,,,0,00,99.99,,,,,,*62
$GPGSA,A,1,,,,,,,,,,,,,99.99,99.99,99.99*30
$GPGSV,3,1,09,03,63,167,,06,66,110,21,07,20,302,,13,56,284,05*7F
$GPGSV,3,2,09,23,57,230,,30,36,060,,31,15,112,,46,39,216,*7A
$GPGSV,3,3,09,51,31,226,*40
$GPGLL,,,,,022242.00,V,N*4E
$GPRMC,022243.00,V,,,,,,,150213,,,N*7C
$GPVTG,,,,,,,,,N*30
$GPGGA,022243.00,,,,,0,00,99.99,,,,,,*63
$GPGSA,A,1,,,,,,,,,,,,,99.99,99.99,99.99*30
$GPGSV,3,1,09,03,63,167,,06,66,110,,07,20,302,20,13,56,284,06*7D
$GPGSV,3,2,09,23,57,230,,30,36,060,,31,15,112,,46,39,216,*7A
$GPGSV,3,3,09,51,31,226,*40
$GPGLL,,,,,022243.00,V,N*4F
$GPRMC,022244.00,V,,,,,,,150213,,,N*7B
$GPVTG,,,,,,,,,N*30
$GPGGA,022244.00,,,,,0,00,99.99,,,,,,*64
$GPGSA,A,1,,,,,,,,,,,,,99.99,99.99,99.99*30
$GPGSV,3,1,09,03,63,167,,06,66,110,,07,20,302,,13,56,284,08*71
$GPGSV,3,2,09,23,57,230,,30,36,060,,31,15,112,,46,39,216,*7A
$GPGSV,3,3,09,51,31,226,*40
$GPGLL,,,,,022244.00,V,N*48
$GPRMC,022245.00,V,,,,,,,150213,,,N*7A
$GPVTG,,,,,,,,,N*30
$GPGGA,022245.00,,,,,0,00,99.99,,,,,,*65
$GPGSA,A,1,,,,,,,,,,,,,99.99,99.99,99.99*30
$GPGSV,3,1,09,03,63,167,,06,66,110,,07,20,302,,13,56,284,*79
$GPGSV,3,2,09,23,57,230,,30,36,060,,31,15,112,,46,39,216,*7A
$GPGSV,3,3,09,51,31,226,*40
$GPGLL,,,,,022245.00,V,N*49
$GPRMC,022246.00,V,,,,,,,150213,,,N*79
$GPVTG,,,,,,,,,N*30
$GPGGA,022246.00,,,,,0,00,99.99,,,,,,*66
$GPGSA,A,1,,,,,,,,,,,,,99.99,99.99,99.99*30
$GPGSV,3,1,09,03,63,167,,06,66,110,,07,20,302,,13,56,284,*79
$GPGSV,3,2,09,23,57,230,,30,36,060,,31,15,112,,46,39,216,*7A
$GPGSV,3,3,09,51,31,226,*40
$GPGLL,,,,,022246.00,V,N*4A
$GPRMC,022247.00,V,,,,,,,150213,,,N*78
$GPVTG,,,,,,,,,N*30
$GPGGA,022247.00,,,,,0,00,99.99,,,,,,*67
$GPGSA,A,1,,,,,,,,,,,,,99.99,99.99,99.99*30
$GPGSV,3,1,09,03,63,167,,06,66,110,,07,20,302,,13,56,284,*79
$GPGSV,3,2,09,23,57,230,,30,36,060,,31,15,112,,46,39,216,*7A
$GPGSV,3,3,09,51,31,226,*40
$GPGLL,,,,,022247.00,V,N*4B
$GPRMC,022248.00,V,,,,,,,150213,,,N*77
$GPVTG,,,,,,,,,N*30
$GPGGA,022248.00,,,,,0,00,99.99,,,,,,*68
$GPGSA,A,1,,,,,,,,,,,,,99.99,99.99,99.99*30
$GPGSV,3,1,09,03,63,167,,06,66,110,,07,20,302,,13,56,283,*7E
$GPGSV,3,2,09,23,57,230,,30,36,060,20,31,15,112,,46,39,216,*78
$GPGSV,3,3,09,51,31,226,*40
$GPGLL,,,,,022248.00,V,N*44
$GPRMC,022249.00,V,,,,,,,150213,,,N*76
$GPVTG,,,,,,,,,N*30
$GPGGA,022249.00,,,,,0,00,99.99,,,,,,*69
$GPGSA,A,1,,,,,,,,,,,,,99.99,99.99,99.99*30
$GPGSV,3,1,09,03,63,167,,06,66,110,,07,20,302,,13,56,283,*7E
$GPGSV,3,2,09,23,57,230,,30,36,060,,31,15,112,,46,39,216,*7A
$GPGSV,3,3,09,51,31,226,*40
$GPGLL,,,,,022249.00,V,N*45
$GPRMC,022250.00,V,,,,,,,150213,,,N*7E
$GPVTG,,,,,,,,,N*30
$GPGGA,022250.00,,,,,0,00,99.99,,,,,,*61
$GPGSA,A,1,,,,,,,,,,,,,99.99,99.99,99.99*30
$GPGSV,3,1,09,03,63,167,,06,66,110,,07,20,302,,13,56,283,*7E
$GPGSV,3,2,09,23,57,230,,30,36,060,,31,15,112,21,46,39,216,*79
$GPGSV,3,3,09,51,31,226,*40
$GPGLL,,,,,022250.00,V,N*4D
$GPRMC,022251.00,V,,,,,,,150213,,,N*7F
$GPVTG,,,,,,,,,N*30
$GPGGA,022251.00,,,,,0,00,99.99,,,,,,*60
$GPGSA,A,1,,,,,,,,,,,,,99.99,99.99,99.99*30
$GPGSV,3,1,09,03,63,167,,06,66,110,,07,20,302,,13,56,283,*7E
$GPGSV,3,2,09,23,57,230,19,30,36,060,,31,15,112,,46,39,216,*72
$GPGSV,3,3,09,51,31,226,*40
$GPGLL,,,,,022251.00,V,N*4C
$GPRMC,022252.00,V,,,,,,,150213,,,N*7C
$GPVTG,,,,,,,,,N*30
$GPGGA,022252.00,,,,,0,00,99.99,,,,,,*63
$GPGSA,A,1,,,,,,,,,,,,,99.99,99.99,99.99*30
$GPGSV,3,1,09,03,63,167,,06,66,110,,07,20,302,,13,56,283,25*79
$GPGSV,3,2,09,23,57,230,17,30,36,060,,31,15,112,,46,39,216,*7C
$GPGSV,3,3,09,51,31,226,*40
$GPGLL,,,,,022252.00,V,N*4F
$GPRMC,022253.00,V,,,,,,,150213,,,N*7D
$GPVTG,,,,,,,,,N*30
$GPGGA,022253.00,,,,,0,00,99.99,,,,,,*62
$GPGSA,A,1,,,,,,,,,,,,,99.99,99.99,99.99*30
$GPGSV,3,1,09,03,63,167,,06,66,110,,07,20,302,,13,56,283,20*7C
$GPGSV,3,2,09,23,57,230,11,30,36,060,,31,15,112,,46,39,216,*7A
$GPGSV,3,3,09,51,31,226,*40
$GPGLL,,,,,022253.00,V,N*4E
$GPRMC,022254.00,V,,,,,,,150213,,,N*7A
$GPVTG,,,,,,,,,N*30
$GPGGA,022254.00,,,,,0,00,99.99,,,,,,*65
$GPGSA,A,1,,,,,,,,,,,,,99.99,99.99,99.99*30
$GPGSV,3,1,09,03,63,167,,06,66,110,,07,20,302,,13,56,283,12*7D
$GPGSV,3,2,09,23,57,230,08,30,36,060,,31,15,112,,46,39,216,*72
$GPGSV,3,3,09,51,31,226,*40
$GPGLL,,,,,022254.00,V,N*49
$GPRMC,022255.00,V,,,,,,,150213,,,N*7B
$GPVTG,,,,,,,,,N*30
$GPGGA,022255.00,,,,,0,00,99.99,,,,,,*64
$GPGSA,A,1,,,,,,,,,,,,,99.99,99.99,99.99*30
$GPGSV,3,1,09,03,63,167,,06,66,110,,07,20,302,,13,56,283,*7E
$GPGSV,3,2,09,23,57,230,,30,36,060,,31,15,112,,46,39,216,*7A
$GPGSV,3,3,09,51,31,226,*40
$GPGLL,,,,,022255.00,V,N*48
$GPRMC,022256.00,V,,,,,,,150213,,,N*78
$GPVTG,,,,,,,,,N*30
$GPGGA,022256.00,,,,,0,00,99.99,,,,,,*67
$GPGSA,A,1,,,,,,,,,,,,,99.99,99.99,99.99*30
$GPGSV,3,1,09,03,63,167,,06,66,110,,07,20,302,,13,56,283,*7E
$GPGSV,3,2,09,23,57,230,,30,36,060,,31,15,112,,46,39,216,*7A
$GPGSV,3,3,09,51,31,226,*40
$GPGLL,,,,,022256.00,V,N*4B
$GPRMC,022257.00,V,,,,,,,150213,,,N*79
$GPVTG,,,,,,,,,N*30
$GPGGA,022257.00,,,,,0,00,99.99,,,,,,*66
$GPGSA,A,1,,,,,,,,,,,,,99.99,99.99,99.99*30
$GPGSV,3,1,09,03,63,167,,06,66,110,,07,20,302,,13,56,283,*7E
$GPGSV,3,2,09,23,57,230,,30,36,060,,31,15,112,,46,39,216,*7A
$GPGSV,3,3,09,51,31,226,*40
$GPGLL,,,,,022257.00,V,N*4A
$GPRMC,022258.00,V,,,,,,,150213,,,N*76
$GPVTG,,,,,,,,,N*30
$GPGGA,022258.00,,,,,0,00,99.99,,,,,,*69
$GPGSA,A,1,,,,,,,,,,,,,99.99,99.99,99.99*30
$GPGSV,3,1,09,03,63,167,,06,66,110,,07,20,302,,13,56,283,*7E
$GPGSV,3,2,09,23,57,229,,30,36,060,,31,15,112,,46,39,216,*72
$GPGSV,3,3,09,51,31,226,*40
$GPGLL,,,,,022258.00,V,N*45
$GPRMC,022259.00,V,,,,,,,150213,,,N*77
$GPVTG,,,,,,,,,N*30
$GPGGA,022259.00,,,,,0,00,99.99,,,,,,*68
$GPGSA,A,1,,,,,,,,,,,,,99.99,99.99,99.99*30
$GPGSV,3,1,09,03,63,167,,06,66,110,,07,20,302,,13,56,283,*7E
$GPGSV,3,2,09,23,57,229,,30,36,060,,31,15,112,,46,39,216,*72
$GPGSV,3,3,09,51,31,226,*40
$GPGLL,,,,,022259.00,V,N*44
$GPRMC,022300.00,V,,,,,,,150213,,,N*7A
$GPVTG,,,,,,,,,N*30
$GPGGA,022300.00,,,,,0,00,99.99,,,,,,*65
$GPGSA,A,1,,,,,,,,,,,,,99.99,99.99,99.99*30
$GPGSV,3,1,09,03,63,167,,06,66,110,,07,20,302,,13,56,283,*7E
$GPGSV,3,2,09,23,57,229,,30,36,060,,31,15,112,,46,39,216,*72
$GPGSV,3,3,09,51,31,226,*40
$GPGLL,,,,,022300.00,V,N*49
$GPRMC,022301.00,V,,,,,,,150213,,,N*7B
$GPVTG,,,,,,,,,N*30
$GPGGA,022301.00,,,,,0,00,99.99,,,,,,*64
$GPGSA,A,1,,,,,,,,,,,,,99.99,99.99,99.99*30
$GPGSV,3,1,09,03,63,167,,06,66,110,,07,20,302,,13,56,283,25*79
$GPGSV,3,2,09,23,57,229,,30,36,060,,31,15,112,,46,39,216,*72
$GPGSV,3,3,09,51,31,226,*40
$GPGLL,,,,,022301.00,V,N*48
$GPRMC,022302.00,V,,,,,,,150213,,,N*78
$GPVTG,,,,,,,,,N*30
$GPGGA,022302.00,,,,,0,00,99.99,,,,,,*67
$GPGSA,A,1,,,,,,,,,,,,,99.99,99.99,99.99*30
$GPGSV,3,1,09,03,63,167,,06,66,110,,07,20,302,,13,56,283,21*7D
$GPGSV,3,2,09,23,57,229,,30,36,060,,31,15,112,,46,39,216,*72
$GPGSV,3,3,09,51,31,226,*40
$GPGLL,,,,,022302.00,V,N*4B
$GPRMC,022303.00,V,,,,,,,150213,,,N*79
$GPVTG,,,,,,,,,N*30
$GPGGA,022303.00,,,,,0,00,99.99,,,,,,*66
$GPGSA,A,1,,,,,,,,,,,,,99.99,99.99,99.99*30
$GPGSV,3,1,09,03,63,167,,06,66,110,,07,20,302,,13,56,283,14*7B
$GPGSV,3,2,09,23,57,229,18,30,36,060,,31,15,112,,46,39,216,*7B
$GPGSV,3,3,09,51,31,226,*40
$GPGLL,,,,,022303.00,V,N*4A
$GPRMC,022304.00,V,,,,,,,150213,,,N*7E
$GPVTG,,,,,,,,,N*30
$GPGGA,022304.00,,,,,0,00,99.99,,,,,,*61
$GPGSA,A,1,,,,,,,,,,,,,99.99,99.99,99.99*30
$GPGSV,3,1,09,03,63,167,,06,66,110,,07,20,302,,13,56,283,13*7C
$GPGSV,3,2,09,23,57,229,15,30,36,060,,31,15,112,,46,39,216,*76
$GPGSV,3,3,09,51,31,226,*40
$GPGLL,,,,,022304.00,V,N*4D
$GPRMC,022305.00,V,,,,,,,150213,,,N*7F
$GPVTG,,,,,,,,,N*30
$GPGGA,022305.00,,,,,0,00,99.99,,,,,,*60
$GPGSA,A,1,,,,,,,,,,,,,99.99,99.99,99.99*30
$GPGSV,3,1,09,03,63,167,,06,66,110,,07,20,302,,13,56,283,*7E
$GPGSV,3,2,09,23,57,229,,30,36,060,,31,15,112,22,46,39,216,*72
$GPGSV,3,3,09,51,31,226,*40
$GPGLL,,,,,022305.00,V,N*4C
$GPRMC,022306.00,V,,,,,,,150213,,,N*7C
$GPVTG,,,,,,,,,N*30
$GPGGA,022306.00,,,,,0,00,99.99,,,,,,*63
$GPGSA,A,1,,,,,,,,,,,,,99.99,99.99,99.99*30
$GPGSV,3,1,09,03,63,167,,06,66,110,,07,20,302,,13,56,283,*7E
$GPGSV,3,2,09,23,57,229,,30,36,060,,31,14,112,18,46,39,216,*7A
$GPGSV,3,3,09,51,31,226,*40
$GPGLL,,,,,022306.00,V,N*4F
$GPRMC,022307.00,V,,,,,,,150213,,,N*7D
$GPVTG,,,,,,,,,N*30
$GPGGA,022307.00,,,,,0,00,99.99,,,,,,*62
$GPGSA,A,1,,,,,,,,,,,,,99.99,99.99,99.99*30
$GPGSV,3,1,09,03,63,167,,06,66,110,,07,20,302,,13,56,283,*7E
$GPGSV,3,2,09,23,57,229,,30,36,060,,31,14,112,12,46,39,216,*70
$GPGSV,3,3,09,51,31,226,*40
$GPGLL,,,,,022307.00,V,N*4E
$GPRMC,022308.00,V,,,,,,,150213,,,N*72
$GPVTG,,,,,,,,,N*30
$GPGGA,022308.00,,,,,0,00,99.99,,,,,,*6D
$GPGSA,A,1,,,,,,,,,,,,,99.99,99.99,99.99*30
$GPGSV,3,1,09,03,63,167,,06,66,110,,07,20,302,,13,56,283,*7E
$GPGSV,3,2,09,23,57,229,,30,36,060,,31,14,112,11,46,39,216,*73
$GPGSV,3,3,09,51,31,226,*40
$GPGLL,,,,,022308.00,V,N*41
$GPRMC,022309.00,V,,,,,,,150213,,,N*73
$GPVTG,,,,,,,,,N*30
$GPGGA,022309.00,,,,,0,00,99.99,,,,,,*6C
$GPGSA,A,1,,,,,,,,,,,,,99.99,99.99,99.99*30
$GPGSV,3,1,09,03,63,167,,06,66,110,,07,20,302,24,13,56,283,*78
$GPGSV,3,2,09,23,57,229,,30,36,060,,31,14,112,09,46,39,216,*7A
$GPGSV,3,3,09,51,31,226,*40
$GPGLL,,,,,022309.00,V,N*40
$GPRMC,022310.00,V,,,,,,,150213,,,N*7B
$GPVTG,,,,,,,,,N*30
$GPGGA,022310.00,,,,,0,00,99.99,,,,,,*64
$GPGSA,A,1,,,,,,,,,,,,,99.99,99.99,99.99*30
$GPGSV,3,1,09,03,63,167,,06,66,110,,07,20,302,,13,56,283,*7E
$GPGSV,3,2,09,23,57,229,,30,36,060,,31,14,112,08,46,39,216,*7B
$GPGSV,3,3,09,51,31,226,*40
$GPGLL,,,,,022310.00,V,N*48
$GPRMC,022311.00,V,,,,,,,150213,,,N*7A
$GPVTG,,,,,,,,,N*30
$GPGGA,022311.00,,,,,0,00,99.99,,,,,,*65
$GPGSA,A,1,,,,,,,,,,,,,99.99,99.99,99.99*30
$GPGSV,3,1,09,03,63,167,,06,66,110,,07,20,302,,13,56,283,*7E
$GPGSV,3,2,09,23,57,229,,30,36,060,,31,14,112,08,46,39,216,*7B
$GPGSV,3,3,09,51,31,226,*40
$GPGLL,,,,,022311.00,V,N*49
$GPRMC,022312.00,V,,,,,,,150213,,,N*79
$GPVTG,,,,,,,,,N*30
$GPGGA,022312.00,,,,,0,00,99.99,,,,,,*66
$GPGSA,A,1,,,,,,,,,,,,,99.99,99.99,99.99*30
$GPGSV,3,1,09,03,63,167,,06,66,110,,07,20,302,,13,56,283,*7E
$GPGSV,3,2,09,23,57,229,,30,36,060,,31,14,112,,46,39,216,*73
$GPGSV,3,3,09,51,31,226,*40
$GPGLL,,,,,022312.00,V,N*4A
$GPRMC,022313.00,V,,,,,,,150213,,,N*78
$GPVTG,,,,,,,,,N*30
$GPGGA,022313.00,,,,,0,00,99.99,,,,,,*67
$GPGSA,A,1,,,,,,,,,,,,,99.99,99.99,99.99*30
$GPGSV,3,1,09,03,63,167,,06,66,110,,07,20,302,,13,56,283,*7E
$GPGSV,3,2,09,23,57,229,20,30,36,060,,31,14,112,,46,39,216,*71
$GPGSV,3,3,09,51,31,226,*40
$GPGLL,,,,,022313.00,V,N*4B
$GPRMC,022314.00,V,,,,,,,150213,,,N*7F
$GPVTG,,,,,,,,,N*30
$GPGGA,022314.00,,,,,0,00,99.99,,,,,,*60
$GPGSA,A,1,,,,,,,,,,,,,99.99,99.99,99.99*30
$GPGSV,3,1,09,03,63,167,,06,66,110,,07,20,302,,13,56,283,*7E
$GPGSV,3,2,09,23,57,229,,30,36,060,,31,14,112,,46,39,216,*73
$GPGSV,3,3,09,51,31,226,*40
$GPGLL,,,,,022314.00,V,N*4C
$GPRMC,022315.00,V,,,,,,,150213,,,N*7E
$GPVTG,,,,,,,,,N*30
$GPGGA,022315.00,,,,,0,00,99.99,,,,,,*61
$GPGSA,A,1,,,,,,,,,,,,,99.99,99.99,99.99*30
$GPGSV,3,1,09,03,63,167,,06,66,110,,07,20,302,,13,56,283,*7E
$GPGSV,3,2,09,23,57,229,,30,36,060,,31,14,112,,46,39,216,*73
$GPGSV,3,3,09,51,31,226,*40
$GPGLL,,,,,022315.00,V,N*4D
$GPRMC,022316.00,V,,,,,,,150213,,,N*7D
$GPVTG,,,,,,,,,N*30
$GPGGA,022316.00,,,,,0,00,99.99,,,,,,*62
$GPGSA,A,1,,,,,,,,,,,,,99.99,99.99,99.99*30
$GPGSV,3,1,09,03,63,167,,06,66,110,,07,20,302,,13,56,283,*7E
$GPGSV,3,2,09,23,57,229,,30,36,060,,31,14,112,,46,39,216,*73
$GPGSV,3,3,09,51,31,226,*40
$GPGLL,,,,,022316.00,V,N*4E
$GPRMC,022317.00,V,,,,,,,150213,,,N*7C
$GPVTG,,,,,,,,,N*30
$GPGGA,022317.00,,,,,0,00,99.99,,,,,,*63
$GPGSA,A,1,,,,,,,,,,,,,99.99,99.99,99.99*30
$GPGSV,3,1,09,03,63,167,,06,66,110,,07,20,302,,13,56,283,*7E
$GPGSV,3,2,09,23,57,229,,30,36,060,,31,14,112,,46,39,216,*73
$GPGSV,3,3,09,51,31,226,*40
$GPGLL,,,,,022317.00,V,N*4F
$GPRMC,022318.00,V,,,,,,,150213,,,N*73
$GPVTG,,,,,,,,,N*30
$GPGGA,022318.00,,,,,0,00,99.99,,,,,,*6C
$GPGSA,A,1,,,,,,,,,,,,,99.99,99.99,99.99*30
$GPGSV,3,1,09,03,63,167,,06,66,110,,07,20,302,,13,56,283,*7E
$GPGSV,3,2,09,23,57,229,,30,36,060,,31,14,112,,46,39,216,*73
$GPGSV,3,3,09,51,31,226,*40
$GPGLL,,,,,022318.00,V,N*40
$GPRMC,022319.00,V,,,,,,,150213,,,N*72
$GPVTG,,,,,,,,,N*30
$GPGGA,022319.00,,,,,0,00,99.99,,,,,,*6D
$GPGSA,A,1,,,,,,,,,,,,,99.99,99.99,99.99*30
$GPGSV,3,1,09,03,63,167,,06,66,110,,07,20,302,,13,56,283,*7E
$GPGSV,3,2,09,23,57,229,,30,36,060,,31,14,112,,46,39,216,*73
$GPGSV,3,3,09,51,31,226,*40
$GPGLL,,,,,022319.00,V,N*41
$GPRMC,022320.00,V,,,,,,,150213,,,N*78
$GPVTG,,,,,,,,,N*30
$GPGGA,022320.00,,,,,0,00,99.99,,,,,,*67
$GPGSA,A,1,,,,,,,,,,,,,99.99,99.99,99.99*30
$GPGSV,3,1,09,03,63,167,,06,66,110,,07,20,302,,13,56,283,*7E
$GPGSV,3,2,09,23,57,229,,30,36,060,,31,14,112,,46,39,216,*73
$GPGSV,3,3,09,51,31,226,*40
$GPGLL,,,,,022320.00,V,N*4B
$GPRMC,022321.00,V,,,,,,,150213,,,N*79
$GPVTG,,,,,,,,,N*30
$GPGGA,022321.00,,,,,0,00,99.99,,,,,,*66
$GPGSA,A,1,,,,,,,,,,,,,99.99,99.99,99.99*30
$GPGSV,3,1,09,03,63,167,,06,66,110,,07,20,302,,13,56,283,*7E
$GPGSV,3,2,09,23,57,229,,30,36,060,,31,14,112,,46,39,216,*73
$GPGSV,3,3,09,51,31,226,*40
$GPGLL,,,,,022321.00,V,N*4A
$GPRMC,022322.00,V,,,,,,,150213,,,N*7A
$GPVTG,,,,,,,,,N*30
$GPGGA,022322.00,,,,,0,00,99.99,,,,,,*65
$GPGSA,A,1,,,,,,,,,,,,,99.99,99.99,99.99*30
$GPGSV,3,1,09,03,63,167,,06,66,110,,07,20,302,,13,56,283,*7E
$GPGSV,3,2,09,23,57,229,,30,36,060,,31,14,112,,46,39,216,*73
$GPGSV,3,3,09,51,31,226,*40
$GPGLL,,,,,022322.00,V,N*49
$GPRMC,022323.00,V,,,,,,,150213,,,N*7B
$GPVTG,,,,,,,,,N*30
$GPGGA,022323.00,,,,,0,00,99.99,,,,,,*64
$GPGSA,A,1,,,,,,,,,,,,,99.99,99.99,99.99*30
$GPGSV,3,1,09,03,63,167,14,06,66,110,,07,20,302,,13,56,283,*7B
$GPGSV,3,2,09,23,57,229,,30,36,060,,31,14,112,,46,39,216,*73
$GPGSV,3,3,09,51,31,226,*40
$GPGLL,,,,,022323.00,V,N*48
$GPRMC,022324.00,V,,,,,,,150213,,,N*7C
$GPVTG,,,,,,,,,N*30
$GPGGA,022324.00,,,,,0,00,99.99,,,,,,*63
$GPGSA,A,1,,,,,,,,,,,,,99.99,99.99,99.99*30
$GPGSV,3,1,09,03,63,167,10,06,66,110,,07,20,302,,13,56,283,*7F
$GPGSV,3,2,09,23,57,229,,30,36,060,,31,14,112,,46,39,216,*73
$GPGSV,3,3,09,51,31,226,*40
$GPGLL,,,,,022324.00,V,N*4F
$GPRMC,022325.00,V,,,,,,,150213,,,N*7D
$GPVTG,,,,,,,,,N*30
$GPGGA,022325.00,,,,,0,00,99.99,,,,,,*62
$GPGSA,A,1,,,,,,,,,,,,,99.99,99.99,99.99*30
$GPGSV,3,1,09,03,63,167,08,06,66,110,,07,20,302,,13,56,283,*76
$GPGSV,3,2,09,23,57,229,,30,36,060,,31,14,112,,46,39,216,*73
$GPGSV,3,3,09,51,31,226,*40
$GPGLL,,,,,022325.00,V,N*4E
$GPRMC,022326.00,V,,,,,,,150213,,,N*7E
$GPVTG,,,,,,,,,N*30
$GPGGA,022326.00,,,,,0,00,99.99,,,,,,*61
$GPGSA,A,1,,,,,,,,,,,,,99.99,99.99,99.99*30
$GPGSV,3,1,09,03,63,167,,06,66,110,,07,20,302,,13,56,283,*7E
$GPGSV,3,2,09,23,57,229,,30,36,060,,31,14,112,,46,39,216,*73
$GPGSV,3,3,09,51,31,226,*40
$GPGLL,,,,,022326.00,V,N*4D
$GPRMC,022327.00,V,,,,,,,150213,,,N*7F
$GPVTG,,,,,,,,,N*30
$GPGGA,022327.00,,,,,0,00,99.99,,,,,,*60
$GPGSA,A,1,,,,,,,,,,,,,99.99,99.99,99.99*30
$GPGSV,3,1,09,03,63,167,,06,66,110,,07,20,302,,13,56,283,*7E
$GPGSV,3,2,09,23,57,229,,30,36,060,,31,14,112,,46,39,216,*73
$GPGSV,3,3,09,51,31,226,*40
$GPGLL,,,,,022327.00,V,N*4C
$GPRMC,022328.00,V,,,,,,,150213,,,N*70
$GPVTG,,,,,,,,,N*30
$GPGGA,022328.00,,,,,0,00,99.99,,,,,,*6F
$GPGSA,A,1,,,,,,,,,,,,,99.99,99.99,99.99*30
$GPGSV,3,1,09,03,63,167,,06,66,110,,07,20,302,,13,56,283,*7E
$GPGSV,3,2,09,23,57,229,,30,36,060,,31,14,112,,46,39,216,*73
$GPGSV,3,3,09,51,31,226,*40
$GPGLL,,,,,022328.00,V,N*43
$GPRMC,022329.00,V,,,,,,,150213,,,N*71
$GPVTG,,,,,,,,,N*30
$GPGGA,022329.00,,,,,0,00,99.99,,,,,,*6E
$GPGSA,A,1,,,,,,,,,,,,,99.99,99.99,99.99*30
$GPGSV,3,1,09,03,63,167,,06,66,110,,07,20,302,,13,56,283,*7E
$GPGSV,3,2,09,23,57,229,,30,36,060,,31,14,112,,46,39,216,*73
$GPGSV,3,3,09,51,31,226,*40
$GPGLL,,,,,022329.00,V,N*42
$GPRMC,022330.00,V,,,,,,,150213,,,N*79
$GPVTG,,,,,,,,,N*30
$GPGGA,022330.00,,,,,0,00,99.99,,,,,,*66
$GPGSA,A,1,,,,,,,,,,,,,99.99,99.99,99.99*30
$GPGSV,3,1,09,03,63,167,,06,66,110,,07,20,302,,13,56,283,*7E
$GPGSV,3,2,09,23,57,229,,30,36,060,,31,14,112,,46,39,216,*73
$GPGSV,3,3,09,51,31,226,*40
$GPGLL,,,,,022330.00,V,N*4A
$GPRMC,022331.00,V,,,,,,,150213,,,N*78
$GPVTG,,,,,,,,,N*30
$GPGGA,022331.00,,,,,0,00,99.99,,,,,,*67
$GPGSA,A,1,,,,,,,,,,,,,99.99,99.99,99.99*30
$GPGSV,3,1,09,03,63,167,,06,66,110,,07,20,302,,13,56,283,*7E
$GPGSV,3,2,09,23,57,229,,30,36,060,,31,14,112,,46,39,216,*73
$GPGSV,3,3,09,51,31,226,*40
$GPGLL,,,,,022331.00,V,N*4B
$GPRMC,022332.00,V,,,,,,,150213,,,N*7B
$GPVTG,,,,,,,,,N*30
$GPGGA,022332.00,,,,,0,00,99.99,,,,,,*64
$GPGSA,A,1,,,,,,,,,,,,,99.99,99.99,99.99*30
$GPGSV,3,1,09,03,63,167,,06,66,110,20,07,20,302,,13,56,283,*7C
$GPGSV,3,2,09,23,57,229,,30,36,060,,31,14,112,,46,39,216,*73
$GPGSV,3,3,09,51,31,226,*40
$GPGLL,,,,,022332.00,V,N*48
$GPRMC,022333.00,V,,,,,,,150213,,,N*7A
$GPVTG,,,,,,,,,N*30
$GPGGA,022333.00,,,,,0,00,99.99,,,,,,*65
$GPGSA,A,1,,,,,,,,,,,,,99.99,99.99,99.99*30
$GPGSV,3,1,09,03,63,167,,06,66,110,16,07,20,302,,13,56,283,*79
$GPGSV,3,2,09,23,57,229,,30,36,060,,31,14,112,,46,39,216,*73
$GPGSV,3,3,09,51,31,226,*40
$GPGLL,,,,,022333.00,V,N*49
$GPRMC,022334.00,V,,,,,,,150213,,,N*7D
$GPVTG,,,,,,,,,N*30
$GPGGA,022334.00,,,,,0,00,99.99,,,,,,*62
$GPGSA,A,1,,,,,,,,,,,,,99.99,99.99,99.99*30
$GPGSV,3,1,09,03,63,167,,06,66,110,10,07,20,302,,13,56,283,*7F
$GPGSV,3,2,09,23,57,229,,30,36,060,,31,14,112,,46,39,216,*73
$GPGSV,3,3,09,51,31,226,*40
$GPGLL,,,,,022334.00,V,N*4E
$GPRMC,022335.00,V,,,,,,,150213,,,N*7C
$GPVTG,,,,,,,,,N*30
$GPGGA,022335.00,,,,,0,00,99.99,,,,,,*63
$GPGSA,A,1,,,,,,,,,,,,,99.99,99.99,99.99*30
$GPGSV,3,1,09,03,63,167,,06,66,110,08,07,20,302,,13,56,283,*76
$GPGSV,3,2,09,23,57,229,,30,36,060,,31,14,112,,46,39,216,*73
$GPGSV,3,3,09,51,31,226,*40
$GPGLL,,,,,022335.00,V,N*4F
$GPRMC,022336.00,V,,,,,,,150213,,,N*7F
$GPVTG,,,,,,,,,N*30
$GPGGA,022336.00,,,,,0,00,99.99,,,,,,*60
$GPGSA,A,1,,,,,,,,,,,,,99.99,99.99,99.99*30
$GPGSV,3,1,09,03,63,167,,06,66,110,,07,20,302,,13,56,283,28*74
$GPGSV,3,2,09,23,57,229,,30,36,060,,31,14,112,,46,39,216,*73
$GPGSV,3,3,09,51,31,226,*40
$GPGLL,,,,,022336.00,V,N*4C
$GPRMC,022337.00,V,,,,,,,150213,,,N*7E
$GPVTG,,,,,,,,,N*30
$GPGGA,022337.00,,,,,0,00,99.99,,,,,,*61
$GPGSA,A,1,,,,,,,,,,,,,99.99,99.99,99.99*30
$GPGSV,3,1,09,03,63,167,,06,66,110,,07,20,302,,13,56,283,*7E
$GPGSV,3,2,09,23,57,229,28,30,36,060,,31,14,112,,46,39,216,*79
$GPGSV,3,3,09,51,31,226,*40
$GPGLL,,,,,022337.00,V,N*4D
$GPRMC,022338.00,V,,,,,,,150213,,,N*71
$GPVTG,,,,,,,,,N*30
$GPGGA,022338.00,,,,,0,00,99.99,,,,,,*6E
$GPGSA,A,1,,,,,,,,,,,,,99.99,99.99,99.99*30
$GPGSV,3,1,09,03,63,167,19,06,66,110,,07,20,302,,13,56,283,*76
$GPGSV,3,2,09,23,57,229,,30,36,060,21,31,14,112,,46,39,216,*70
$GPGSV,3,3,09,51,31,226,*40
$GPGLL,,,,,022338.00,V,N*42
$GPRMC,022339.00,V,,,,,,,150213,,,N*70
$GPVTG,,,,,,,,,N*30
$GPGGA,022339.00,,,,,0,00,99.99,,,,,,*6F
$GPGSA,A,1,,,,,,,,,,,,,99.99,99.99,99.99*30
$GPGSV,3,1,09,03,63,167,13,06,66,110,18,07,20,302,,13,56,283,*75
$GPGSV,3,2,09,23,57,229,,30,36,060,23,31,14,112,,46,39,216,*72
$GPGSV,3,3,09,51,31,226,*40
$GPGLL,,,,,022339.00,V,N*43
$GPRMC,022340.00,V,,,,,,,150213,,,N*7E
$GPVTG,,,,,,,,,N*30
$GPGGA,022340.00,,,,,0,00,99.99,,,,,,*61
$GPGSA,A,1,,,,,,,,,,,,,99.99,99.99,99.99*30
$GPGSV,3,1,09,03,63,167,08,06,66,110,15,07,20,302,,13,56,283,*72
$GPGSV,3,2,09,23,57,229,,30,36,060,19,31,14,112,,46,39,216,*7B
$GPGSV,3,3,09,51,31,226,*40
$GPGLL,,,,,022340.00,V,N*4D
$GPRMC,022341.00,V,,,,,,,150213,,,N*7F
$GPVTG,,,,,,,,,N*30
$GPGGA,022341.00,,,,,0,00,99.99,,,,,,*60
$GPGSA,A,1,,,,,,,,,,,,,99.99,99.99,99.99*30
$GPGSV,3,1,09,03,63,167,08,06,66,110,10,07,20,302,,13,56,283,*77
$GPGSV,3,2,09,23,57,229,,30,36,060,17,31,14,112,,46,39,216,*75
$GPGSV,3,3,09,51,31,226,*40
$GPGLL,,,,,022341.00,V,N*4C
$GPRMC,022342.00,V,,,,,,,150213,,,N*7C
$GPVTG,,,,,,,,,N*30
